,id,name,location,coordinates,num_reviews,cuisine,timestamp,rating,recommend
0,XjeGryxde-tQZF_Ewu7NCw,Gamja Tang Tang,"{'address1': '408 Main St', 'address2': None, 'address3': '', 'city': 'Fort Lee', 'zip_code': '07024', 'country': 'US', 'state': 'NJ', 'display_address': ['408 Main St', 'Fort Lee, NJ 07024']}","{'latitude': 40.8536913813532, 'longitude': -73.9748638910085}",171,korean,2019-04-26 20:33:21.481133,4.0,0
1,uaFHoq-a5XqxF-bsOK9_Qg,Real Kung Fu Little Steamed Buns Ramen,"{'address1': '811 8th Ave', 'address2': '', 'address3': '', 'city': 'New York', 'zip_code': '10019', 'country': 'US', 'state': 'NY', 'display_address': ['811 8th Ave', 'New York, NY 10019']}","{'latitude': 40.7616286634162, 'longitude': -73.9868181646996}",901,japanese,2019-04-26 20:50:26.616212,3.5,1
2,IhSVn0TaX8xXb3wcQ-fgcA,Vanessa's Dumpling House,"{'address1': '118A Eldridge St', 'address2': '', 'address3': '', 'city': 'New York', 'zip_code': '10002', 'country': 'US', 'state': 'NY', 'display_address': ['118A Eldridge St', 'New York, NY 10002']}","{'latitude': 40.71839, 'longitude': -73.9917399}",2447,chinese,2019-04-26 20:28:03.576971,4.0,1
3,C29qVHuUDyFoQQPaFOpGfQ,The Tea Bar,"{'address1': '1636 Palisade Ave', 'address2': 'Ste 4', 'address3': '', 'city': 'Fort Lee', 'zip_code': '07024', 'country': 'US', 'state': 'NJ', 'display_address': ['1636 Palisade Ave', 'Ste 4', 'Fort Lee, NJ 07024']}","{'latitude': 40.84995, 'longitude': -73.96832}",215,korean,2019-04-26 20:33:21.067481,4.0,1
4,je92kXXWjANmiN-dfwNapg,Sushi Dojo NYC,"{'address1': '110 1st Ave', 'address2': '', 'address3': '', 'city': 'New York', 'zip_code': '10009', 'country': 'US', 'state': 'NY', 'display_address': ['110 1st Ave', 'New York, NY 10009']}","{'latitude': 40.7266273498535, 'longitude': -73.9856719970703}",399,japanese,2019-04-26 20:50:06.333839,4.0,1
5,aSprnLY-6GkMk1cuv0TMeA,Al Di La Trattoria,"{'address1': '248 5th Ave', 'address2': '', 'address3': '', 'city': 'Brooklyn', 'zip_code': '11215', 'country': 'US', 'state': 'NY', 'display_address': ['248 5th Ave', 'Brooklyn, NY 11215']}","{'latitude': 40.675332643247, 'longitude': -73.981340475038}",840,italian,2019-04-26 20:44:46.501133,4.0,1
6,AFidVhcRHCmlk6YxgRlO2Q,Golden Fountain Kitchen,"{'address1': '11616 Metropolitan Ave', 'address2': '', 'address3': '', 'city': 'Richmond Hill', 'zip_code': '11418', 'country': 'US', 'state': 'NY', 'display_address': ['11616 Metropolitan Ave', 'Richmond Hill, NY 11418']}","{'latitude': 40.707262693702, 'longitude': -73.8350343704224}",96,chinese,2019-04-26 20:29:15.437549,3.5,0
7,x9wa2M7gvf32swUSBP3uXA,Blockheads,"{'address1': 'Worldwide Plz', 'address2': '322 W 50th St', 'address3': '', 'city': 'New York', 'zip_code': '10019', 'country': 'US', 'state': 'NY', 'display_address': ['Worldwide Plz', '322 W 50th St', 'New York, NY 10019']}","{'latitude': 40.7627155294445, 'longitude': -73.9876316100625}",745,mexican,2019-04-26 20:41:55.477118,3.5,1
8,5fRh0bh2HDGYb7Lsms36vQ,China Moon Restaurant,"{'address1': '16 1/2 1/2 Columbia Ave E', 'address2': '', 'address3': '', 'city': 'Palisades Park', 'zip_code': '07650', 'country': 'US', 'state': 'NJ', 'display_address': ['16 1/2 1/2 Columbia Ave E', 'Palisades Park, NJ 07650']}","{'latitude': 40.8424226, 'longitude': -74.0010624}",22,chinese,2019-04-26 20:29:37.130894,3.5,0
9,ypqK8DWM8Bcs43YveSJnNw,Manhatta,"{'address1': '28 Liberty St', 'address2': 'Fl 60', 'address3': None, 'city': 'New York', 'zip_code': '10005', 'country': 'US', 'state': 'NY', 'display_address': ['28 Liberty St', 'Fl 60', 'New York, NY 10005']}","{'latitude': 40.70797, 'longitude': -74.0088899}",229,indian,2019-04-26 20:31:12.352604,4.5,1
10,pmJqb7-EckluXUk6Rtml6A,Hunan Park,"{'address1': '721 Columbus Ave', 'address2': '', 'address3': '', 'city': 'New York', 'zip_code': '10025', 'country': 'US', 'state': 'NY', 'display_address': ['721 Columbus Ave', 'New York, NY 10025']}","{'latitude': 40.79221, 'longitude': -73.96774}",83,japanese,2019-04-26 20:51:29.811015,3.0,0
11,jYia13i0CBwNXadzAAxLJg,Arirang Hibachi Steakhouse,"{'address1': '8814 4th Ave', 'address2': '', 'address3': '', 'city': 'Brooklyn', 'zip_code': '11209', 'country': 'US', 'state': 'NY', 'display_address': ['8814 4th Ave', 'Brooklyn, NY 11209']}","{'latitude': 40.62106, 'longitude': -74.02927}",296,japanese,2019-04-26 20:50:55.493906,3.5,1
12,kbUZnWtro1h8BuPcSOd74g,Good Harvest,"{'address1': '6324 Fort Hamilton Pkwy', 'address2': '', 'address3': None, 'city': 'Brooklyn', 'zip_code': '11219', 'country': 'US', 'state': 'NY', 'display_address': ['6324 Fort Hamilton Pkwy', 'Brooklyn, NY 11219']}","{'latitude': 40.631422388901, 'longitude': -74.0082286219422}",149,chinese,2019-04-26 20:28:30.800493,4.0,0
13,S8Ntmdlw4bJDBOmxn865tg,A Voce,"{'address1': '41 Madison Ave', 'address2': '', 'address3': '', 'city': 'New York', 'zip_code': '10010', 'country': 'US', 'state': 'NY', 'display_address': ['41 Madison Ave', 'New York, NY 10010']}","{'latitude': 40.7424278676851, 'longitude': -73.986175361557}",285,italian,2019-04-26 20:46:00.235226,3.5,1
14,qu3niqEXOUdNxCCXnSPBYg,Xi'an Famous Foods,"{'address1': '313 6th Ave', 'address2': None, 'address3': '', 'city': 'New York', 'zip_code': '10014', 'country': 'US', 'state': 'NY', 'display_address': ['313 6th Ave', 'New York, NY 10014']}","{'latitude': 40.731, 'longitude': -74.00198}",57,chinese,2019-04-26 20:28:33.507705,4.0,0
15,fyepvQnhH7O1Bw9V4Xu-OA,La Bella Salumeria Delicatessen,"{'address1': '2308 Bergenline Ave', 'address2': '', 'address3': '', 'city': 'Union City', 'zip_code': '07087', 'country': 'US', 'state': 'NJ', 'display_address': ['2308 Bergenline Ave', 'Union City, NJ 07087']}","{'latitude': 40.767234, 'longitude': -74.03244}",49,italian,2019-04-26 20:45:19.502110,4.5,0
16,B_kcyXzmkJlFI9pSl7PHvw,Restaurant Ukiyo,"{'address1': '239 E 5th St', 'address2': None, 'address3': '', 'city': 'New York', 'zip_code': '10003', 'country': 'US', 'state': 'NY', 'display_address': ['239 E 5th St', 'New York, NY 10003']}","{'latitude': 40.72699, 'longitude': -73.98922}",54,japanese,2019-04-26 20:49:42.147106,5.0,0
17,FXhSEZfIqjMZh4hR0_8jMQ,China Xiang 中国湘,"{'address1': '360 W 42nd Street', 'address2': '', 'address3': '', 'city': 'New York', 'zip_code': '10036', 'country': 'US', 'state': 'NY', 'display_address': ['360 W 42nd Street', 'New York, NY 10036']}","{'latitude': 40.7582902125633, 'longitude': -73.9925113993899}",382,chinese,2019-04-26 20:28:15.915413,4.0,1
18,uR-MqserQgPRQK3aiP6WyQ,Tokyo Ya,"{'address1': '5603 7th Ave', 'address2': '', 'address3': '', 'city': 'Sunset Park', 'zip_code': '11220', 'country': 'US', 'state': 'NY', 'display_address': ['5603 7th Ave', 'Sunset Park, NY 11220']}","{'latitude': 40.63888, 'longitude': -74.00941}",74,japanese,2019-04-26 20:51:01.367590,3.5,0
19,uVfOB37NyYEGRs5FITM-nQ,Leyenda,"{'address1': '221 Smith St', 'address2': '', 'address3': '', 'city': 'Brooklyn', 'zip_code': '11201', 'country': 'US', 'state': 'NY', 'display_address': ['221 Smith St', 'Brooklyn, NY 11201']}","{'latitude': 40.68431, 'longitude': -73.99197}",186,mexican,2019-04-26 20:41:33.951434,4.0,0
20,EZHEA7QR_9WFeCJhbjK73Q,Cadillac Cantina,"{'address1': '80 River St', 'address2': '', 'address3': '', 'city': 'Hoboken', 'zip_code': '07030', 'country': 'US', 'state': 'NJ', 'display_address': ['80 River St', 'Hoboken, NJ 07030']}","{'latitude': 40.7362168298531, 'longitude': -74.0293640841882}",198,mexican,2019-04-26 20:42:45.782600,3.0,0
21,WbZhH2j8i3GhNsOsviM1VQ,Bonchon - Jersey City,"{'address1': '172 Newark Ave', 'address2': '', 'address3': '', 'city': 'Jersey City', 'zip_code': '07302', 'country': 'US', 'state': 'NJ', 'display_address': ['172 Newark Ave', 'Jersey City, NJ 07302']}","{'latitude': 40.72137, 'longitude': -74.045}",228,korean,2019-04-26 20:33:41.030320,3.0,0
22,8Gg_SoA5TA7pLNB-xuPhPw,Mexikosher,"{'address1': '100 W 83rd St', 'address2': '', 'address3': None, 'city': 'New York', 'zip_code': '10024', 'country': 'US', 'state': 'NY', 'display_address': ['100 W 83rd St', 'New York, NY 10024']}","{'latitude': 40.78458, 'longitude': -73.97393}",71,mexican,2019-04-26 20:42:26.548135,3.5,0
23,6uIOYlN8xkokcVBD_oDFBw,Dan and John's Wings,"{'address1': '135 1st Ave', 'address2': '', 'address3': '', 'city': 'New York', 'zip_code': '10003', 'country': 'US', 'state': 'NY', 'display_address': ['135 1st Ave', 'New York, NY 10003']}","{'latitude': 40.7278557, 'longitude': -73.9853134}",315,indian,2019-04-26 20:32:18.156520,4.5,1
24,xlv_CcDXH1hkG4Wq5mECkQ,Vamos Al Tequila,"{'address1': '162 Franklin St', 'address2': '', 'address3': '', 'city': 'Brooklyn', 'zip_code': '11222', 'country': 'US', 'state': 'NY', 'display_address': ['162 Franklin St', 'Brooklyn, NY 11222']}","{'latitude': 40.73079, 'longitude': -73.95753}",267,mexican,2019-04-26 20:42:09.766521,3.5,1
25,D1V7ZadUtUPuYYlpDA1BOQ,Sakura Of Japan,"{'address1': '570 8th Ave', 'address2': None, 'address3': '', 'city': 'New York', 'zip_code': '10018', 'country': 'US', 'state': 'NY', 'display_address': ['570 8th Ave', 'New York, NY 10018']}","{'latitude': 40.75472, 'longitude': -73.99129}",25,japanese,2019-04-26 20:51:10.049000,4.0,0
26,Ry9w-jFALWYhazi6jjyIKw,Rucola,"{'address1': '190 Dean St', 'address2': '', 'address3': '', 'city': 'Brooklyn', 'zip_code': '11217', 'country': 'US', 'state': 'NY', 'display_address': ['190 Dean St', 'Brooklyn, NY 11217']}","{'latitude': 40.68562, 'longitude': -73.98587}",453,italian,2019-04-26 20:44:46.411830,4.0,1
27,yKPRuBvD3ScCc18QrZ4Y6w,El Porton Mexican Restaurant Bar,"{'address1': '3151 Broadway', 'address2': '', 'address3': '', 'city': 'New York', 'zip_code': '10027', 'country': 'US', 'state': 'NY', 'display_address': ['3151 Broadway', 'New York, NY 10027']}","{'latitude': 40.81452, 'longitude': -73.95966}",159,mexican,2019-04-26 20:42:13.681244,3.5,0
28,pqebqpVTT8bR_s9iEu8dOA,Curry-Ya,"{'address1': '214 E 10th St', 'address2': '', 'address3': '', 'city': 'New York', 'zip_code': '10003', 'country': 'US', 'state': 'NY', 'display_address': ['214 E 10th St', 'New York, NY 10003']}","{'latitude': 40.72922, 'longitude': -73.98604}",695,japanese,2019-04-26 20:49:56.637082,4.0,1
29,HDoJIH-qW9FqJ5WB-bKTqA,MIGHTY Bowl,"{'address1': '1109 Lexington Ave', 'address2': None, 'address3': '', 'city': 'New York', 'zip_code': '10075', 'country': 'US', 'state': 'NY', 'display_address': ['1109 Lexington Ave', 'New York, NY 10075']}","{'latitude': 40.7738, 'longitude': -73.95945}",61,japanese,2019-04-26 20:50:04.144186,4.5,0
30,FgRJsieXorHgI-2XzGxh5A,Nikko Hibachi,"{'address1': '177-21 Union Tpke', 'address2': '', 'address3': '', 'city': 'Fresh Meadows', 'zip_code': '11366', 'country': 'US', 'state': 'NY', 'display_address': ['177-21 Union Tpke', 'Fresh Meadows, NY 11366']}","{'latitude': 40.7262971, 'longitude': -73.7906424}",312,japanese,2019-04-26 20:50:32.237442,3.5,1
31,1fVp9c5Vw04ig171a_juRw,U Like,"{'address1': '602 Marcy Ave', 'address2': '', 'address3': '', 'city': 'Brooklyn', 'zip_code': '11206', 'country': 'US', 'state': 'NY', 'display_address': ['602 Marcy Ave', 'Brooklyn, NY 11206']}","{'latitude': 40.694007, 'longitude': -73.949259}",40,chinese,2019-04-26 20:28:26.895913,4.5,0
32,MSVftNJ5lwPK9TQtHayaPQ,Suzuki,"{'address1': '114 W 47th St', 'address2': None, 'address3': None, 'city': 'New York', 'zip_code': '10036', 'country': 'US', 'state': 'NY', 'display_address': ['114 W 47th St', 'New York, NY 10036']}","{'latitude': 40.7582797854234, 'longitude': -73.9827184029637}",111,japanese,2019-04-26 20:50:36.391135,4.0,0
33,xbrQ2dHuQoFJmNxAuOky4A,Vic's,"{'address1': '31 Great Jones St', 'address2': '', 'address3': '', 'city': 'New York', 'zip_code': '10012', 'country': 'US', 'state': 'NY', 'display_address': ['31 Great Jones St', 'New York, NY 10012']}","{'latitude': 40.72693, 'longitude': -73.99319}",399,italian,2019-04-26 20:44:37.559598,4.0,1
34,z4CzSOnngC2RaTEC_BgUWA,Cataldo's Restaurant,"{'address1': '554 Vanderbilt Ave', 'address2': 'Ste 1', 'address3': '', 'city': 'Brooklyn', 'zip_code': '11238', 'country': 'US', 'state': 'NY', 'display_address': ['554 Vanderbilt Ave', 'Ste 1', 'Brooklyn, NY 11238']}","{'latitude': 40.6800799, 'longitude': -73.96832}",214,italian,2019-04-26 20:44:47.609939,4.0,1
35,PqqnNrUtU7XTKQvUM4cyqQ,Bar Verde,"{'address1': '65 2nd Ave', 'address2': '', 'address3': None, 'city': 'New York', 'zip_code': '10003', 'country': 'US', 'state': 'NY', 'display_address': ['65 2nd Ave', 'New York, NY 10003']}","{'latitude': 40.7260849061034, 'longitude': -73.9897361397743}",152,mexican,2019-04-26 20:41:15.783870,4.5,0
36,SbSfNyGKyarQC-ixuIn7fw,Lasiaf Tacos,"{'address1': '2368 Flatbush Ave', 'address2': None, 'address3': '', 'city': 'Brooklyn', 'zip_code': '11234', 'country': 'US', 'state': 'NY', 'display_address': ['2368 Flatbush Ave', 'Brooklyn, NY 11234']}","{'latitude': 40.612299, 'longitude': -73.925793}",39,mexican,2019-04-26 20:42:31.661708,3.5,0
37,FkA9aoMhWO4XKFMTuTnl4Q,Atla,"{'address1': '372 Lafayette St', 'address2': None, 'address3': '', 'city': 'New York', 'zip_code': '10012', 'country': 'US', 'state': 'NY', 'display_address': ['372 Lafayette St', 'New York, NY 10012']}","{'latitude': 40.7271874, 'longitude': -73.9938924}",220,mexican,2019-04-26 20:42:06.986565,3.5,1
38,PsYY7NHs5cFEI5hW5IZUlg,The Creek & The Cave,"{'address1': '10-93 Jackson Ave', 'address2': None, 'address3': '', 'city': 'Long Island City', 'zip_code': '11101', 'country': 'US', 'state': 'NY', 'display_address': ['10-93 Jackson Ave', 'Long Island City, NY 11101']}","{'latitude': 40.7432511476929, 'longitude': -73.9517892774468}",355,mexican,2019-04-26 20:41:55.230248,3.5,1
39,3Gz07E5YJjDTJPSuzsAStQ,Ocean Prime,"{'address1': '123 W 52nd St', 'address2': '', 'address3': '', 'city': 'New York', 'zip_code': '10019', 'country': 'US', 'state': 'NY', 'display_address': ['123 W 52nd St', 'New York, NY 10019']}","{'latitude': 40.76173, 'longitude': -73.98063}",478,indian,2019-04-26 20:30:52.633491,4.5,1
40,MXstrG3HjF83LcxAd8OpTw,New Li Yuan,"{'address1': '273 W 38th St', 'address2': '', 'address3': '', 'city': 'New York', 'zip_code': '10018', 'country': 'US', 'state': 'NY', 'display_address': ['273 W 38th St', 'New York, NY 10018']}","{'latitude': 40.754589387013, 'longitude': -73.9912518276348}",59,chinese,2019-04-26 20:28:32.329445,4.0,0
41,Ypz7j5vm0kZ2XqpjGjbHNw,Kookoo Chicken,"{'address1': '1698 86th St', 'address2': '', 'address3': None, 'city': 'Brooklyn', 'zip_code': '11214', 'country': 'US', 'state': 'NY', 'display_address': ['1698 86th St', 'Brooklyn, NY 11214']}","{'latitude': 40.608487, 'longitude': -74.005194}",80,chinese,2019-04-26 20:28:56.061048,3.5,0
42,lFZDo3_rVV0N_YQob9I-BA,Shin Satto Tong Jokbal & Bossam,"{'address1': '26E Columbia Ave', 'address2': None, 'address3': None, 'city': 'Palisades Park', 'zip_code': '07650', 'country': 'US', 'state': 'NJ', 'display_address': ['26E Columbia Ave', 'Palisades Park, NJ 07650']}","{'latitude': 40.84202, 'longitude': -74.00081}",15,korean,2019-04-26 20:33:25.067415,5.0,0
43,X8Tg6XHKERw-vdWRU4oH3Q,Nuevo Mexico Bar & Restaurant,"{'address1': '489 5th Ave', 'address2': '', 'address3': '', 'city': 'Brooklyn', 'zip_code': '11215', 'country': 'US', 'state': 'NY', 'display_address': ['489 5th Ave', 'Brooklyn, NY 11215']}","{'latitude': 40.667476, 'longitude': -73.987365}",230,mexican,2019-04-26 20:42:03.734730,3.5,1
44,WoCulK8HeGKt1Y8FSf0bTg,No. 1 Yummy Taco,"{'address1': '154-01 Union Tpke', 'address2': '', 'address3': None, 'city': 'Queens', 'zip_code': '11367', 'country': 'US', 'state': 'NY', 'display_address': ['154-01 Union Tpke', 'Queens, NY 11367']}","{'latitude': 40.7199334833763, 'longitude': -73.8097636029124}",14,mexican,2019-04-26 20:42:53.683904,4.0,0
45,Q9F2ocrmYuGt1yn3M7MOBw,Lucali,"{'address1': '575 Henry St', 'address2': None, 'address3': '', 'city': 'Brooklyn', 'zip_code': '11231', 'country': 'US', 'state': 'NY', 'display_address': ['575 Henry St', 'Brooklyn, NY 11231']}","{'latitude': 40.6818, 'longitude': -74.00024}",1305,indian,2019-04-26 20:31:05.702845,4.5,1
46,hAPJ5u7-gg358T2Y8mT91Q,Nacho Macho Taco,"{'address1': '591 Knickerbocker Ave', 'address2': None, 'address3': '', 'city': 'Brooklyn', 'zip_code': '11221', 'country': 'US', 'state': 'NY', 'display_address': ['591 Knickerbocker Ave', 'Brooklyn, NY 11221']}","{'latitude': 40.69646, 'longitude': -73.91388}",20,mexican,2019-04-26 20:42:14.593526,4.5,0
47,NebgteFykeM1gwiVgPcCHw,The Handpulled Noodle,"{'address1': '3600 Broadway', 'address2': 'Ste 3', 'address3': '', 'city': 'New York', 'zip_code': '10031', 'country': 'US', 'state': 'NY', 'display_address': ['3600 Broadway', 'Ste 3', 'New York, NY 10031']}","{'latitude': 40.828384, 'longitude': -73.948674}",630,chinese,2019-04-26 20:28:09.305305,4.0,1
48,7cCFZXZNlIfT8OkArzCwfQ,27 Mix,"{'address1': '27 Halsey St', 'address2': '', 'address3': '', 'city': 'Newark', 'zip_code': '07102', 'country': 'US', 'state': 'NJ', 'display_address': ['27 Halsey St', 'Newark, NJ 07102']}","{'latitude': 40.7415499, 'longitude': -74.1710499}",177,mexican,2019-04-26 20:42:20.989323,3.5,0
49,-_fDmhClugYdfy19qcNQpw,Asian Taste,"{'address1': '718 5th Ave', 'address2': '', 'address3': '', 'city': 'Brooklyn', 'zip_code': '11215', 'country': 'US', 'state': 'NY', 'display_address': ['718 5th Ave', 'Brooklyn, NY 11215']}","{'latitude': 40.660945, 'longitude': -73.994533}",51,japanese,2019-04-26 20:51:22.374397,3.5,0
50,xFp3xSQ43J-i7nmJfNBsZA,Norikoh,"{'address1': '10 E 39th St', 'address2': None, 'address3': '', 'city': 'New York', 'zip_code': '10016', 'country': 'US', 'state': 'NY', 'display_address': ['10 E 39th St', 'New York, NY 10016']}","{'latitude': 40.75116, 'longitude': -73.98153}",471,japanese,2019-04-26 20:50:17.298978,4.0,1
51,s56akY1oyxA74UT0IJYB8w,Paladar Brazilian BBQ,"{'address1': '358 E 112th St', 'address2': None, 'address3': None, 'city': 'New York', 'zip_code': '10029', 'country': 'US', 'state': 'NY', 'display_address': ['358 E 112th St', 'New York, NY 10029']}","{'latitude': 40.79352, 'longitude': -73.93768}",50,indian,2019-04-26 20:30:39.872946,5.0,0
52,RfkuPrAKQRFPC3D_0ugnEQ,Patricia's of Tremont,"{'address1': '3883 E Tremont Ave', 'address2': '', 'address3': '', 'city': 'Bronx', 'zip_code': '10465', 'country': 'US', 'state': 'NY', 'display_address': ['3883 E Tremont Ave', 'Bronx, NY 10465']}","{'latitude': 40.8231315612793, 'longitude': -73.8192596435547}",205,italian,2019-04-26 20:45:52.683985,3.5,1
53,jFhD3GansBI-NbA7Zj1Uew,Cherin,"{'address1': '306-308 E 6th St', 'address2': '', 'address3': '', 'city': 'New York', 'zip_code': '10003', 'country': 'US', 'state': 'NY', 'display_address': ['306-308 E 6th St', 'New York, NY 10003']}","{'latitude': 40.7269931, 'longitude': -73.9880779}",243,japanese,2019-04-26 20:51:08.297865,3.0,0
54,wAmWk6hQaHjREDVe8z2otA,Pampano Taqueria,"{'address1': '805 3rd Ave', 'address2': '', 'address3': '', 'city': 'New York', 'zip_code': '10022', 'country': 'US', 'state': 'NY', 'display_address': ['805 3rd Ave', 'New York, NY 10022']}","{'latitude': 40.75537, 'longitude': -73.97054}",166,mexican,2019-04-26 20:42:01.592284,3.5,0
55,h7WwPbWt4Qgimc6K4oVTxA,Feng's Garden,"{'address1': '11054 Queens Blvd', 'address2': '', 'address3': '', 'city': 'Forest Hills', 'zip_code': '11375', 'country': 'US', 'state': 'NY', 'display_address': ['11054 Queens Blvd', 'Forest Hills, NY 11375']}","{'latitude': 40.7190535, 'longitude': -73.8393932}",59,chinese,2019-04-26 20:29:08.853405,3.5,0
56,Ca0xNawSNNhDWtJlR3fk3Q,Luna Coffee Shop,"{'address1': '121 W 29th', 'address2': None, 'address3': '', 'city': 'New York', 'zip_code': '10001', 'country': 'US', 'state': 'NY', 'display_address': ['121 W 29th', 'New York, NY 10001']}","{'latitude': 40.7472270747783, 'longitude': -73.991003443492}",196,indian,2019-04-26 20:32:39.845171,4.5,0
57,kCk2uqmmJBQ80iLuncNhlQ,Kiraku Sushi,"{'address1': '1948 Williamsbridge Rd', 'address2': '', 'address3': '', 'city': 'Bronx', 'zip_code': '10461', 'country': 'US', 'state': 'NY', 'display_address': ['1948 Williamsbridge Rd', 'Bronx, NY 10461']}","{'latitude': 40.8532877, 'longitude': -73.8534942}",71,japanese,2019-04-26 20:51:09.569845,3.5,0
58,lj1dgpWHiymVFNWp3vzC1A,Colina Cuervo,"{'address1': '759 Nostrand Ave', 'address2': '', 'address3': '', 'city': 'Crown Heights', 'zip_code': '11216', 'country': 'US', 'state': 'NY', 'display_address': ['759 Nostrand Ave', 'Crown Heights, NY 11216']}","{'latitude': 40.6713243870099, 'longitude': -73.9503035730164}",152,indian,2019-04-26 20:32:01.162646,4.5,0
59,XaEFFUabnbH8ZF7ccmSAlQ,South Of The Clouds,"{'address1': '16 W 8th St', 'address2': None, 'address3': '', 'city': 'New York', 'zip_code': '10011', 'country': 'US', 'state': 'NY', 'display_address': ['16 W 8th St', 'New York, NY 10011']}","{'latitude': 40.73264, 'longitude': -73.99752}",155,chinese,2019-04-26 20:28:17.722809,4.0,0
60,023ivwWL8ruoHsr3-AaGFA,Chipotle Mexican Grill,"{'address1': '234 5th Ave', 'address2': 'Frnt 1', 'address3': '', 'city': 'New York', 'zip_code': '10001', 'country': 'US', 'state': 'NY', 'display_address': ['234 5th Ave', 'Frnt 1', 'New York, NY 10001']}","{'latitude': 40.7442733806164, 'longitude': -73.987870919479}",45,mexican,2019-04-26 20:42:54.141108,3.0,0
61,07CFPHGST8k37uHYAGxYqQ,Pink Moose,"{'address1': '1070 1st Ave', 'address2': '', 'address3': None, 'city': 'New York', 'zip_code': '10022', 'country': 'US', 'state': 'NY', 'display_address': ['1070 1st Ave', 'New York, NY 10022']}","{'latitude': 40.75911, 'longitude': -73.96212}",118,indian,2019-04-26 20:31:59.789297,4.5,0
62,SzH79XjUPoTYBnE3dybRsw,Della,"{'address1': '1238 Prospect Ave', 'address2': '', 'address3': 'Reeve Place', 'city': 'Brooklyn', 'zip_code': '11218', 'country': 'US', 'state': 'NY', 'display_address': ['1238 Prospect Ave', 'Reeve Place', 'Brooklyn, NY 11218']}","{'latitude': 40.65287, 'longitude': -73.97631}",104,italian,2019-04-26 20:45:48.828183,4.0,0
63,qNmHq3ST2bBinAN-TatwSg,Mirakuya Japanese Cuisine,"{'address1': '727 Flushing Ave', 'address2': '', 'address3': None, 'city': 'Brooklyn', 'zip_code': '11206', 'country': 'US', 'state': 'NY', 'display_address': ['727 Flushing Ave', 'Brooklyn, NY 11206']}","{'latitude': 40.7004883125668, 'longitude': -73.9435394480824}",36,japanese,2019-04-26 20:51:16.615344,3.5,0
64,GuqvwAFpjjz3m3vicbJBTQ,El Rey del Taco Deli,"{'address1': '49-06 43rd Ave', 'address2': '', 'address3': '', 'city': 'Woodside', 'zip_code': '11377', 'country': 'US', 'state': 'NY', 'display_address': ['49-06 43rd Ave', 'Woodside, NY 11377']}","{'latitude': 40.7445104420185, 'longitude': -73.9153558015823}",43,mexican,2019-04-26 20:42:09.306441,4.0,0
65,47_jHPl3p4-OYGCVLy2ZIA,Salvatoria Kitchen & Bar,"{'address1': '31-18 Broadway', 'address2': None, 'address3': '', 'city': 'Astoria', 'zip_code': '11106', 'country': 'US', 'state': 'NY', 'display_address': ['31-18 Broadway', 'Astoria, NY 11106']}","{'latitude': 40.76142, 'longitude': -73.92486}",143,indian,2019-04-26 20:31:32.645611,4.5,0
66,DpZ7Xaub8Lhpg7VJdHaPpg,Zenkichi,"{'address1': '77 N 6th St', 'address2': None, 'address3': '', 'city': 'Brooklyn', 'zip_code': '11249', 'country': 'US', 'state': 'NY', 'display_address': ['77 N 6th St', 'Brooklyn, NY 11249']}","{'latitude': 40.7189722, 'longitude': -73.9608301}",947,japanese,2019-04-26 20:49:45.257568,4.0,1
67,FsHqkVb0kmLq1VW7P-xz1A,Tomo Japanese Fusion,"{'address1': '1077 Flushing Ave', 'address2': '', 'address3': '', 'city': 'Brooklyn', 'zip_code': '11237', 'country': 'US', 'state': 'NY', 'display_address': ['1077 Flushing Ave', 'Brooklyn, NY 11237']}","{'latitude': 40.70465, 'longitude': -73.9292399}",156,japanese,2019-04-26 20:51:15.484480,3.0,0
68,enDIsmxSG2bQccQWgGNcbg,Takumen,"{'address1': '5-50 50th Ave', 'address2': '', 'address3': '', 'city': 'Long Island City', 'zip_code': '11101', 'country': 'US', 'state': 'NY', 'display_address': ['5-50 50th Ave', 'Long Island City, NY 11101']}","{'latitude': 40.74259, 'longitude': -73.9546699}",166,japanese,2019-04-26 20:50:17.686831,4.0,0
69,NUFdHBhmlzJAZv0IpYuOoA,Sushi Tokyo,"{'address1': '121 W 19th St', 'address2': None, 'address3': '', 'city': 'New York', 'zip_code': '10011', 'country': 'US', 'state': 'NY', 'display_address': ['121 W 19th St', 'New York, NY 10011']}","{'latitude': 40.74081, 'longitude': -73.99509}",16,japanese,2019-04-26 20:51:30.163660,3.5,0
70,kuKSvCZDFrgOrY-dcrOefg,Round K,"{'address1': '99 Allen St', 'address2': None, 'address3': '', 'city': 'New York', 'zip_code': '10002', 'country': 'US', 'state': 'NY', 'display_address': ['99 Allen St', 'New York, NY 10002']}","{'latitude': 40.718906, 'longitude': -73.990966}",339,indian,2019-04-26 20:32:11.552825,4.5,1
71,Ab-oC8Wm_R73gWQYOUW_xA,Unidentified Flying Chickens,"{'address1': '71-22 Roosevelt Ave', 'address2': '', 'address3': '', 'city': 'Jackson Heights', 'zip_code': '11372', 'country': 'US', 'state': 'NY', 'display_address': ['71-22 Roosevelt Ave', 'Jackson Heights, NY 11372']}","{'latitude': 40.746559, 'longitude': -73.8940372}",610,korean,2019-04-26 20:33:20.837739,3.5,1
72,V-yI80ii8Sau_BOQsDhz-A,Taqueria La Placita Puebla,"{'address1': '830 Broadway', 'address2': '', 'address3': '', 'city': 'Brooklyn', 'zip_code': '11206', 'country': 'US', 'state': 'NY', 'display_address': ['830 Broadway', 'Brooklyn, NY 11206']}","{'latitude': 40.699081, 'longitude': -73.93946}",51,mexican,2019-04-26 20:42:08.278207,4.0,0
73,fyC2cBsQ0FsMJmv0jSworg,Donna Margherita,"{'address1': '1304 2nd Ave', 'address2': 'Ste A', 'address3': None, 'city': 'New York', 'zip_code': '10065', 'country': 'US', 'state': 'NY', 'display_address': ['1304 2nd Ave', 'Ste A', 'New York, NY 10065']}","{'latitude': 40.76652, 'longitude': -73.9598}",40,italian,2019-04-26 20:46:00.775672,4.0,0
74,1fYBZCQh_fI8XUOpZ15Vag,Georgian Deli and Bakery,"{'address1': '2270 86th St', 'address2': None, 'address3': '', 'city': 'Brooklyn', 'zip_code': '11214', 'country': 'US', 'state': 'NY', 'display_address': ['2270 86th St', 'Brooklyn, NY 11214']}","{'latitude': 40.600711, 'longitude': -73.99221}",42,indian,2019-04-26 20:32:06.833621,5.0,0
75,Gl13gO27l6HYZ9h1GWVNIA,El Torito,"{'address1': '2132 Cruger Ave', 'address2': '', 'address3': '', 'city': 'Bronx', 'zip_code': '10462', 'country': 'US', 'state': 'NY', 'display_address': ['2132 Cruger Ave', 'Bronx, NY 10462']}","{'latitude': 40.8541745692492, 'longitude': -73.8666415214539}",18,mexican,2019-04-26 20:42:57.739935,3.5,0
76,jRZ3SuJ--vimE47dna3J7Q,Hannosuke,"{'address1': '595 River Rd', 'address2': '', 'address3': '', 'city': 'Edgewater', 'zip_code': '07020', 'country': 'US', 'state': 'NJ', 'display_address': ['595 River Rd', 'Edgewater, NJ 07020']}","{'latitude': 40.81627, 'longitude': -73.97983}",108,japanese,2019-04-26 20:50:46.102832,4.0,0
77,nqXvLzqzQQTJ2eMPkAcojw,Roots Cafe,"{'address1': '639 5th Ave', 'address2': '', 'address3': '', 'city': 'Brooklyn', 'zip_code': '11215', 'country': 'US', 'state': 'NY', 'display_address': ['639 5th Ave', 'Brooklyn, NY 11215']}","{'latitude': 40.6628485, 'longitude': -73.9916831}",291,indian,2019-04-26 20:31:04.214319,4.5,1
78,JuHeNFYoeva_FDjmtj_vLw,il Fornetto,"{'address1': '2902 Emmons Ave', 'address2': '', 'address3': '', 'city': 'Brooklyn', 'zip_code': '11235', 'country': 'US', 'state': 'NY', 'display_address': ['2902 Emmons Ave', 'Brooklyn, NY 11235']}","{'latitude': 40.5835841, 'longitude': -73.9397077}",332,italian,2019-04-26 20:45:16.014125,4.0,1
79,p-rLkKnNekR7nplgWnAUYQ,Empire East,"{'address1': '2740 Hylan Blvd', 'address2': None, 'address3': '', 'city': 'Staten Island', 'zip_code': '10306', 'country': 'US', 'state': 'NY', 'display_address': ['2740 Hylan Blvd', 'Staten Island, NY 10306']}","{'latitude': 40.5654903, 'longitude': -74.1144495}",103,chinese,2019-04-26 20:29:01.853226,3.5,0
80,dpCSDy9uefOEcY44FHss2Q,Hyo Dong Gak,"{'address1': '51 W 35th St', 'address2': '', 'address3': '', 'city': 'New York', 'zip_code': '10001', 'country': 'US', 'state': 'NY', 'display_address': ['51 W 35th St', 'New York, NY 10001']}","{'latitude': 40.7501219, 'longitude': -73.9862269}",388,chinese,2019-04-26 20:28:38.442624,3.5,1
81,pehKHPaU7Zgqf5SQ0MZmLA,Bread & Butter,"{'address1': '303 5th Ave.', 'address2': '', 'address3': None, 'city': 'New York', 'zip_code': '10001', 'country': 'US', 'state': 'NY', 'display_address': ['303 5th Ave.', 'New York, NY 10001']}","{'latitude': 40.7466099, 'longitude': -73.98568}",196,japanese,2019-04-26 20:51:25.363363,3.0,0
82,H89jrU17lNnguPaHbmzhAw,Amazing 66,"{'address1': '66 Mott St', 'address2': None, 'address3': '', 'city': 'New York', 'zip_code': '10013', 'country': 'US', 'state': 'NY', 'display_address': ['66 Mott St', 'New York, NY 10013']}","{'latitude': 40.716099, 'longitude': -73.997955}",267,chinese,2019-04-26 20:28:50.211422,3.5,1
83,KPGZ6zr6lUX9YROjGcUbtw,Peri Peri Grill House,"{'address1': '235 Malcolm X Blvd', 'address2': None, 'address3': '', 'city': 'Brooklyn', 'zip_code': '11233', 'country': 'US', 'state': 'NY', 'display_address': ['235 Malcolm X Blvd', 'Brooklyn, NY 11233']}","{'latitude': 40.68474, 'longitude': -73.92916}",100,indian,2019-04-26 20:31:58.042823,4.5,0
84,9yTwuznxkJo9JZl7KBZ0zw,Hibachi Express,"{'address1': '536 E 14th St', 'address2': '', 'address3': None, 'city': 'New York', 'zip_code': '10009', 'country': 'US', 'state': 'NY', 'display_address': ['536 E 14th St', 'New York, NY 10009']}","{'latitude': 40.729499, 'longitude': -73.978765}",14,japanese,2019-04-26 20:51:32.612888,3.5,0
85,d1pRHsBuYCZ4hdk0dyjE-g,Jade Chinese Restaurant,"{'address1': '8159 Lefferts Blvd', 'address2': '', 'address3': '', 'city': 'Kew Gardens', 'zip_code': '11415', 'country': 'US', 'state': 'NY', 'display_address': ['8159 Lefferts Blvd', 'Kew Gardens, NY 11415']}","{'latitude': 40.7080256, 'longitude': -73.8306941}",39,chinese,2019-04-26 20:28:51.797111,4.0,0
86,OO1EUYT629SG6rxkHJnmYA,Umi Sushi,"{'address1': '9605 Metropolitan Ave', 'address2': '', 'address3': '', 'city': 'Forest Hills', 'zip_code': '11375', 'country': 'US', 'state': 'NY', 'display_address': ['9605 Metropolitan Ave', 'Forest Hills, NY 11375']}","{'latitude': 40.7115099, 'longitude': -73.85614}",63,japanese,2019-04-26 20:51:14.136602,3.5,0
87,8hxvfFZH4kPp35kH5DhnIw,Kumo Sushi,"{'address1': '165 W 72nd St', 'address2': '', 'address3': '', 'city': 'New York', 'zip_code': '10023', 'country': 'US', 'state': 'NY', 'display_address': ['165 W 72nd St', 'New York, NY 10023']}","{'latitude': 40.7785911560059, 'longitude': -73.9808349609375}",143,japanese,2019-04-26 20:51:25.174774,3.0,0
88,sR60I9PI_63noBQcGoIrbw,Pause Cafe,"{'address1': '3 Clinton St', 'address2': '', 'address3': '', 'city': 'New York', 'zip_code': '10002', 'country': 'US', 'state': 'NY', 'display_address': ['3 Clinton St', 'New York, NY 10002']}","{'latitude': 40.72123, 'longitude': -73.98408}",348,indian,2019-04-26 20:30:56.093235,4.5,1
89,U2tjlMRITBSHHHTiv7L11A,Hayashi,"{'address1': '2901 Ocean Ave', 'address2': '', 'address3': '', 'city': 'Brooklyn', 'zip_code': '11235', 'country': 'US', 'state': 'NY', 'display_address': ['2901 Ocean Ave', 'Brooklyn, NY 11235']}","{'latitude': 40.590482, 'longitude': -73.94938}",161,japanese,2019-04-26 20:50:30.902029,4.0,0
90,P_a_taGxqxvkzdzp51Bm7A,Simon's BBQ II,"{'address1': '5224 8th Ave', 'address2': '', 'address3': '', 'city': 'Brooklyn', 'zip_code': '11220', 'country': 'US', 'state': 'NY', 'display_address': ['5224 8th Ave', 'Brooklyn, NY 11220']}","{'latitude': 40.6395142, 'longitude': -74.0053988}",53,chinese,2019-04-26 20:28:51.616708,4.0,0
91,AOZlppihRNG8Y2N4Jid30A,Brooklyn Pizza Masters,"{'address1': '1055 1st Ave', 'address2': '', 'address3': None, 'city': 'New York', 'zip_code': '10022', 'country': 'US', 'state': 'NY', 'display_address': ['1055 1st Ave', 'New York, NY 10022']}","{'latitude': 40.7588567, 'longitude': -73.9626842}",90,indian,2019-04-26 20:31:49.937345,4.5,0
92,0oRYwB_SLqjHptvUQwwe2w,Tajin,"{'address1': '85 Greenwich St', 'address2': '', 'address3': '', 'city': 'New York', 'zip_code': '10006', 'country': 'US', 'state': 'NY', 'display_address': ['85 Greenwich St', 'New York, NY 10006']}","{'latitude': 40.70772, 'longitude': -74.01356}",214,mexican,2019-04-26 20:41:55.131437,3.5,1
93,JVNH3KfshX0ZcAe7_UJFAw,Glaze Teriyaki,"{'address1': '145 N 4th St', 'address2': None, 'address3': '', 'city': 'Brooklyn', 'zip_code': '11211', 'country': 'US', 'state': 'NY', 'display_address': ['145 N 4th St', 'Brooklyn, NY 11211']}","{'latitude': 40.7161521911621, 'longitude': -73.959098815918}",54,japanese,2019-04-26 20:51:21.350004,3.5,0
94,HVZ4E2yL-k37oC4ayiubbQ,Sabrosura 2,"{'address1': '1808 Westchester Ave', 'address2': '', 'address3': '', 'city': 'Bronx', 'zip_code': '10472', 'country': 'US', 'state': 'NY', 'display_address': ['1808 Westchester Ave', 'Bronx, NY 10472']}","{'latitude': 40.8317697392748, 'longitude': -73.86583769469}",102,chinese,2019-04-26 20:28:44.947028,3.5,0
95,EM6z-NkZ-q2KPWNY7aKvNw,Woks Chinese Cuisine,"{'address1': '7921 37th Ave', 'address2': '', 'address3': '', 'city': 'Jackson Heights', 'zip_code': '11372', 'country': 'US', 'state': 'NY', 'display_address': ['7921 37th Ave', 'Jackson Heights, NY 11372']}","{'latitude': 40.7496084, 'longitude': -73.8868197}",16,chinese,2019-04-26 20:29:34.005082,4.0,0
96,kYURnv37Z5P_sir_QJGHzg,Sake Sushi,"{'address1': '2347 86th St', 'address2': '', 'address3': '', 'city': 'Brooklyn', 'zip_code': '11214', 'country': 'US', 'state': 'NY', 'display_address': ['2347 86th St', 'Brooklyn, NY 11214']}","{'latitude': 40.600102, 'longitude': -73.990238}",694,japanese,2019-04-26 20:50:45.665763,3.5,1
97,tK_4ECZ0EPIhW8588hfn5g,El Nopal Restaurant & Juice Bar,"{'address1': '631 5th Ave', 'address2': '', 'address3': '', 'city': 'Brooklyn', 'zip_code': '11215', 'country': 'US', 'state': 'NY', 'display_address': ['631 5th Ave', 'Brooklyn, NY 11215']}","{'latitude': 40.663129, 'longitude': -73.9912745}",92,mexican,2019-04-26 20:41:26.611761,4.0,0
98,JpBTZvrifSd1h8ON6m2pRg,Chengs Oriental Express,"{'address1': '4213 Bowne St', 'address2': '', 'address3': '', 'city': 'Flushing', 'zip_code': '11355', 'country': 'US', 'state': 'NY', 'display_address': ['4213 Bowne St', 'Flushing, NY 11355']}","{'latitude': 40.7569299, 'longitude': -73.8215}",33,chinese,2019-04-26 20:28:58.864435,4.0,0
99,TyLhPh5dez8JLqXOgHXUaw,Tokyo Bay Japanese Restaurant,"{'address1': '183 Duane St', 'address2': '', 'address3': '', 'city': 'New York', 'zip_code': '10013', 'country': 'US', 'state': 'NY', 'display_address': ['183 Duane St', 'New York, NY 10013']}","{'latitude': 40.7175644, 'longitude': -74.0102073}",69,japanese,2019-04-26 20:51:25.269197,3.0,0
100,AVuDEai-NoQnsnPgcFmI7w,Suki Sushi,"{'address1': '9208 3rd Ave', 'address2': None, 'address3': '', 'city': 'Brooklyn', 'zip_code': '11209', 'country': 'US', 'state': 'NY', 'display_address': ['9208 3rd Ave', 'Brooklyn, NY 11209']}","{'latitude': 40.619135, 'longitude': -74.033169}",58,japanese,2019-04-26 20:51:12.264685,3.5,0
101,XKDHsS8PevoEdFLNtt05FA,Shuya Cafe de Ramen,"{'address1': '42-13 Broadway', 'address2': '', 'address3': '', 'city': 'Astoria', 'zip_code': '11103', 'country': 'US', 'state': 'NY', 'display_address': ['42-13 Broadway', 'Astoria, NY 11103']}","{'latitude': 40.758007205736, 'longitude': -73.9167939666258}",230,japanese,2019-04-26 20:49:43.232388,4.5,1
102,jy6AHLVJ7cVJZ4Fl_ds3Qg,Los Tres Chiflados,"{'address1': '1046 Flatbush Ave', 'address2': None, 'address3': '', 'city': 'Brooklyn', 'zip_code': '11226', 'country': 'US', 'state': 'NY', 'display_address': ['1046 Flatbush Ave', 'Brooklyn, NY 11226']}","{'latitude': 40.645497, 'longitude': -73.958364}",77,mexican,2019-04-26 20:41:54.117039,4.0,0
103,PwIMIWCzL7tlOVb-v0_RKw,Emperor House,"{'address1': '767 Forest Ave', 'address2': '', 'address3': '', 'city': 'Staten Island', 'zip_code': '10310', 'country': 'US', 'state': 'NY', 'display_address': ['767 Forest Ave', 'Staten Island, NY 10310']}","{'latitude': 40.62925, 'longitude': -74.11467}",16,chinese,2019-04-26 20:29:33.913762,4.0,0
104,SNNDz7nTCL1lf9yEY5DaBA,Margarita Bar NYC,"{'address1': '709 8th Ave', 'address2': None, 'address3': '', 'city': 'New York', 'zip_code': '10036', 'country': 'US', 'state': 'NY', 'display_address': ['709 8th Ave', 'New York, NY 10036']}","{'latitude': 40.759132, 'longitude': -73.9886919}",23,mexican,2019-04-26 20:42:57.278096,3.5,0
105,LTfR_0NiS7OIRCfkaAJg9w,Silver Rice,"{'address1': '638 Park Pl', 'address2': '', 'address3': '', 'city': 'Brooklyn', 'zip_code': '11238', 'country': 'US', 'state': 'NY', 'display_address': ['638 Park Pl', 'Brooklyn, NY 11238']}","{'latitude': 40.6742123562615, 'longitude': -73.9568891376257}",246,japanese,2019-04-26 20:49:42.690716,4.5,1
106,z4ac0Zdj7wyXqBQRRbQKOQ,Canton Palace II,"{'address1': '88 Rte 46 W', 'address2': None, 'address3': '', 'city': 'Ridgefield', 'zip_code': '07657', 'country': 'US', 'state': 'NJ', 'display_address': ['88 Rte 46 W', 'Ridgefield, NJ 07657']}","{'latitude': 40.8447303369746, 'longitude': -74.0083200176165}",188,chinese,2019-04-26 20:29:14.092744,3.0,0
107,H7kT9MKx1i4VGruZc04ktg,Taste of Guilin,"{'address1': '6307 8th Ave', 'address2': None, 'address3': '', 'city': 'Brooklyn', 'zip_code': '11220', 'country': 'US', 'state': 'NY', 'display_address': ['6307 8th Ave', 'Brooklyn, NY 11220']}","{'latitude': 40.633513226377, 'longitude': -74.0115089192536}",45,chinese,2019-04-26 20:29:27.349518,3.5,0
108,hcI6TVxFyVNEPXg3rF1bQw,Oaxaca Taqueria,"{'address1': '405 W 44th St', 'address2': '', 'address3': '', 'city': 'New York', 'zip_code': '10036', 'country': 'US', 'state': 'NY', 'display_address': ['405 W 44th St', 'New York, NY 10036']}","{'latitude': 40.7601356506348, 'longitude': -73.992057800293}",99,mexican,2019-04-26 20:42:00.817800,4.0,0
109,cn3JXMq29UfRkFCUD0Bhbw,Fried Dumpling,"{'address1': '106 Mosco St', 'address2': '', 'address3': '', 'city': 'New York', 'zip_code': '10013', 'country': 'US', 'state': 'NY', 'display_address': ['106 Mosco St', 'New York, NY 10013']}","{'latitude': 40.7145984, 'longitude': -73.9993465}",483,chinese,2019-04-26 20:28:23.127226,3.5,1
110,od-5v2v1HdGisEDAXotqeg,Poke,"{'address1': '343 E 85th St', 'address2': None, 'address3': '', 'city': 'New York', 'zip_code': '10028', 'country': 'US', 'state': 'NY', 'display_address': ['343 E 85th St', 'New York, NY 10028']}","{'latitude': 40.7766, 'longitude': -73.95057}",443,japanese,2019-04-26 20:50:13.495971,4.0,1
111,U1MkaYLx7PL8qZbgi4BsCQ,The Green Chicpea,"{'address1': '59 Halsey St', 'address2': '', 'address3': '', 'city': 'Newark', 'zip_code': '07102', 'country': 'US', 'state': 'NJ', 'display_address': ['59 Halsey St', 'Newark, NJ 07102']}","{'latitude': 40.74057, 'longitude': -74.17148}",170,indian,2019-04-26 20:32:17.963454,4.5,0
112,emL5uzqKWWqUIsew5R9nnA,Tacos Y Quesadillas Mexico Restaurant,"{'address1': '104-40 Corona Ave', 'address2': '', 'address3': None, 'city': 'Queens', 'zip_code': '11368', 'country': 'US', 'state': 'NY', 'display_address': ['104-40 Corona Ave', 'Queens, NY 11368']}","{'latitude': 40.74367, 'longitude': -73.85728}",22,mexican,2019-04-26 20:42:45.231435,3.5,0
113,b_3yI7FXcIle71lD9Tulww,Guajillo,"{'address1': '2277 1st Ave', 'address2': '', 'address3': '', 'city': 'New York', 'zip_code': '10035', 'country': 'US', 'state': 'NY', 'display_address': ['2277 1st Ave', 'New York, NY 10035']}","{'latitude': 40.7967861606349, 'longitude': -73.934840150695}",29,mexican,2019-04-26 20:41:51.641696,4.5,0
114,-KsRhLrfrBKy1eXJe60ggA,Hanbat,"{'address1': '452 Broad Ave', 'address2': '', 'address3': '', 'city': 'Palisades Park', 'zip_code': '07650', 'country': 'US', 'state': 'NJ', 'display_address': ['452 Broad Ave', 'Palisades Park, NJ 07650']}","{'latitude': 40.8516006, 'longitude': -73.9949112}",87,korean,2019-04-26 20:33:46.490042,3.0,0
115,NB5u0htOK_1_dTkYALpRxg,Yoi Sushi Japanese,"{'address1': '133-22 39th Ave', 'address2': None, 'address3': '', 'city': 'Flushing', 'zip_code': '11354', 'country': 'US', 'state': 'NY', 'display_address': ['133-22 39th Ave', 'Flushing, NY 11354']}","{'latitude': 40.75899, 'longitude': -73.83364}",144,japanese,2019-04-26 20:49:45.436930,4.5,0
116,mZdxvKqo8-hP86lus1pVHQ,Ssam Tong,"{'address1': '41-08 149th Pl', 'address2': None, 'address3': '', 'city': 'Flushing', 'zip_code': '11355', 'country': 'US', 'state': 'NY', 'display_address': ['41-08 149th Pl', 'Flushing, NY 11355']}","{'latitude': 40.7620679529178, 'longitude': -73.8147188962881}",68,korean,2019-04-26 20:33:09.084488,4.5,0
117,8CTaeOtqr461Ah5yWcnCPw,Fatty Daddy Taco,"{'address1': '152 Smith St', 'address2': None, 'address3': '', 'city': 'Brooklyn', 'zip_code': '11201', 'country': 'US', 'state': 'NY', 'display_address': ['152 Smith St', 'Brooklyn, NY 11201']}","{'latitude': 40.686578, 'longitude': -73.990821}",129,mexican,2019-04-26 20:41:53.845094,4.0,0
118,d8USIZvTTqee35l34anRBg,Sauce Pizzeria,"{'address1': '345 E 12th St', 'address2': '', 'address3': None, 'city': 'New York', 'zip_code': '10003', 'country': 'US', 'state': 'NY', 'display_address': ['345 E 12th St', 'New York, NY 10003']}","{'latitude': 40.73033, 'longitude': -73.98403}",107,italian,2019-04-26 20:44:31.496422,4.5,0
119,C83_0TlJdnKSKwkaH62DKA,Japan Express,"{'address1': 'E 71st St', 'address2': '', 'address3': None, 'city': 'New York', 'zip_code': '10021', 'country': 'US', 'state': 'NY', 'display_address': ['E 71st St', 'New York, NY 10021']}","{'latitude': 40.768702, 'longitude': -73.960223}",9,japanese,2019-04-26 20:51:23.707778,4.5,0
120,bO8x1Xvtyj4_gUxtX-sjrA,Taqueria Guadalupe,"{'address1': '1743 Lexington Ave', 'address2': '', 'address3': '', 'city': 'New York', 'zip_code': '10029', 'country': 'US', 'state': 'NY', 'display_address': ['1743 Lexington Ave', 'New York, NY 10029']}","{'latitude': 40.793716, 'longitude': -73.944923}",45,mexican,2019-04-26 20:43:03.436497,3.0,0
121,WefqbhlzN9me67Uf1RVjxQ,Chinese-Korean Restaurant,"{'address1': '36-12 Union St', 'address2': '', 'address3': '', 'city': 'Queens', 'zip_code': '11354', 'country': 'US', 'state': 'NY', 'display_address': ['36-12 Union St', 'Queens, NY 11354']}","{'latitude': 40.76334, 'longitude': -73.82829}",1,korean,2019-04-26 20:33:59.126105,3.0,0
122,KIPrTLyJb0mHpsxuaCByZg,Corner 28 - The Roast,"{'address1': '5124 8th Ave', 'address2': '', 'address3': None, 'city': 'Brooklyn', 'zip_code': '11220', 'country': 'US', 'state': 'NY', 'display_address': ['5124 8th Ave', 'Brooklyn, NY 11220']}","{'latitude': 40.6401824951172, 'longitude': -74.0049591064453}",57,chinese,2019-04-26 20:28:55.546312,3.5,0
123,S_2XkMG-bpNfb0gTKZdvkw,Yummy Tummy Asian Bistro,"{'address1': '161-16 Northern Blvd', 'address2': None, 'address3': '', 'city': 'Flushing', 'zip_code': '11358', 'country': 'US', 'state': 'NY', 'display_address': ['161-16 Northern Blvd', 'Flushing, NY 11358']}","{'latitude': 40.76215, 'longitude': -73.80427}",103,korean,2019-04-26 20:33:24.111445,4.0,0
124,KaBw8UEm8uZTV6YLsshYrQ,Pocha 32,"{'address1': '15 W 32nd St', 'address2': 'Fl 2', 'address3': '', 'city': 'New York', 'zip_code': '10001', 'country': 'US', 'state': 'NY', 'display_address': ['15 W 32nd St', 'Fl 2', 'New York, NY 10001']}","{'latitude': 40.747524574399, 'longitude': -73.9862626791}",1399,korean,2019-04-26 20:33:25.243185,3.5,1
125,agCuWjaUJ8xBO_PDDQRiGw,S Wan Cafe 洋紫荆,"{'address1': '85 Eldridge St Lower E', 'address2': None, 'address3': None, 'city': 'New York', 'zip_code': '10002', 'country': 'US', 'state': 'NY', 'display_address': ['85 Eldridge St Lower E', 'New York, NY 10002']}","{'latitude': 40.71725, 'longitude': -73.99254}",111,chinese,2019-04-26 20:28:05.732120,4.0,0
126,ak9vroilf-vpA_GSNWX2Jg,Imperial Palace,"{'address1': '13613 37th Ave', 'address2': '', 'address3': '', 'city': 'Flushing', 'zip_code': '11354', 'country': 'US', 'state': 'NY', 'display_address': ['13613 37th Ave', 'Flushing, NY 11354']}","{'latitude': 40.761867, 'longitude': -73.830619}",397,chinese,2019-04-26 20:28:18.383001,4.0,1
127,BJi6fX-mObaJ3N75v6mwaQ,Restaurant On 58 St,"{'address1': '773 58th St', 'address2': '', 'address3': '', 'city': 'Brooklyn', 'zip_code': '11220', 'country': 'US', 'state': 'NY', 'display_address': ['773 58th St', 'Brooklyn, NY 11220']}","{'latitude': 40.637012, 'longitude': -74.00853}",20,chinese,2019-04-26 20:29:31.905330,4.0,0
128,mYQMjrtHp8vsEKKNsRz1XA,Union Pizza Works,"{'address1': '423 Troutman St', 'address2': '', 'address3': '', 'city': 'Brooklyn', 'zip_code': '11237', 'country': 'US', 'state': 'NY', 'display_address': ['423 Troutman St', 'Brooklyn, NY 11237']}","{'latitude': 40.7073067, 'longitude': -73.922154}",222,italian,2019-04-26 20:44:42.858255,4.0,1
129,XJ68bnXVpW-pZTuiDrnCzQ,China Pavilion,"{'address1': '2102 Eastchester Rd', 'address2': '', 'address3': '', 'city': 'Bronx', 'zip_code': '10461', 'country': 'US', 'state': 'NY', 'display_address': ['2102 Eastchester Rd', 'Bronx, NY 10461']}","{'latitude': 40.8563, 'longitude': -73.84374}",27,chinese,2019-04-26 20:29:25.254148,3.5,0
130,HKBJGt04_ZSdiIWA_6J8kQ,Tortaria,"{'address1': '94 University Pl', 'address2': '', 'address3': '', 'city': 'New York', 'zip_code': '10003', 'country': 'US', 'state': 'NY', 'display_address': ['94 University Pl', 'New York, NY 10003']}","{'latitude': 40.73387, 'longitude': -73.99304}",642,mexican,2019-04-26 20:41:58.235708,3.5,1
131,KyOtOluTH8c8SICpf85thg,Mesa Azteca,"{'address1': '91 Wyckoff Ave', 'address2': '', 'address3': '', 'city': 'Brooklyn', 'zip_code': '11237', 'country': 'US', 'state': 'NY', 'display_address': ['91 Wyckoff Ave', 'Brooklyn, NY 11237']}","{'latitude': 40.70506, 'longitude': -73.92022}",217,mexican,2019-04-26 20:41:40.531888,4.0,1
132,AWeQkgJ0uzNr5YxFr2Bx8g,Pasquale Jones,"{'address1': '187 Mulberry St', 'address2': '', 'address3': '', 'city': 'New York', 'zip_code': '10012', 'country': 'US', 'state': 'NY', 'display_address': ['187 Mulberry St', 'New York, NY 10012']}","{'latitude': 40.7210341671446, 'longitude': -73.9967492344452}",198,italian,2019-04-26 20:45:54.397323,3.5,0
133,uboO7T3XSnl8iq0uQWhMXA,Café Altro Paradiso,"{'address1': '234 Spring St', 'address2': '', 'address3': '', 'city': 'New York', 'zip_code': '10013', 'country': 'US', 'state': 'NY', 'display_address': ['234 Spring St', 'New York, NY 10013']}","{'latitude': 40.72549, 'longitude': -74.00489}",123,italian,2019-04-26 20:46:07.750112,3.5,0
134,oJjMYhA6z1_BVaQpSdyl8g,Golden Forest,"{'address1': '353 Grand St', 'address2': '', 'address3': '', 'city': 'New York', 'zip_code': '10002', 'country': 'US', 'state': 'NY', 'display_address': ['353 Grand St', 'New York, NY 10002']}","{'latitude': 40.7167, 'longitude': -73.98945}",143,chinese,2019-04-26 20:28:30.286740,4.0,0
135,4eAgPj7eKonKAtk64kgUfQ,Matsuri,"{'address1': '39-56 61st St', 'address2': '', 'address3': None, 'city': 'Woodside', 'zip_code': '11377', 'country': 'US', 'state': 'NY', 'display_address': ['39-56 61st St', 'Woodside, NY 11377']}","{'latitude': 40.7458357, 'longitude': -73.9035436}",92,japanese,2019-04-26 20:49:44.713368,4.5,0
136,U2aUFZARLeSMf4RQIxjuTw,Lucky House Kitchen,"{'address1': '343 Lewis Ave', 'address2': '', 'address3': '', 'city': 'Brooklyn', 'zip_code': '11233', 'country': 'US', 'state': 'NY', 'display_address': ['343 Lewis Ave', 'Brooklyn, NY 11233']}","{'latitude': 40.6838402152061, 'longitude': -73.9351565390825}",86,chinese,2019-04-26 20:28:04.032770,4.5,0
137,xAEs5QnuL8uMNWjmUGpK7g,Fushimi Bay Ridge,"{'address1': '9316 4th Ave', 'address2': '', 'address3': '', 'city': 'Brooklyn', 'zip_code': '11209', 'country': 'US', 'state': 'NY', 'display_address': ['9316 4th Ave', 'Brooklyn, NY 11209']}","{'latitude': 40.61727, 'longitude': -74.03101}",345,japanese,2019-04-26 20:50:45.220591,3.5,1
138,ifIfq2EwEohCgoKnG68_LA,Villa Berulia,"{'address1': '107 E 34th St', 'address2': '', 'address3': '', 'city': 'New York', 'zip_code': '10016', 'country': 'US', 'state': 'NY', 'display_address': ['107 E 34th St', 'New York, NY 10016']}","{'latitude': 40.7467827, 'longitude': -73.9806507}",143,italian,2019-04-26 20:45:01.588604,4.0,0
139,xnw88LhmiI7_ktRTVYbESw,ZuriLee Restaurant,"{'address1': '755 Flatbush Ave', 'address2': '', 'address3': '', 'city': 'Brooklyn', 'zip_code': '11226', 'country': 'US', 'state': 'NY', 'display_address': ['755 Flatbush Ave', 'Brooklyn, NY 11226']}","{'latitude': 40.654557, 'longitude': -73.959409}",232,indian,2019-04-26 20:32:24.068399,4.5,1
140,Okbtt-ISFB3kuoxkl2wVgg,The Simone,"{'address1': '151 E 82nd St', 'address2': '', 'address3': '', 'city': 'New York', 'zip_code': '10028', 'country': 'US', 'state': 'NY', 'display_address': ['151 E 82nd St', 'New York, NY 10028']}","{'latitude': 40.77682, 'longitude': -73.95698}",84,indian,2019-04-26 20:30:41.386277,5.0,0
141,-Qn5nXGhxWHNePA0dYmPSg,Tacos Times Square,"{'address1': '144B W 37th St', 'address2': '', 'address3': None, 'city': 'New York', 'zip_code': '10018', 'country': 'US', 'state': 'NY', 'display_address': ['144B W 37th St', 'New York, NY 10018']}","{'latitude': 40.75255, 'longitude': -73.98864}",91,mexican,2019-04-26 20:41:31.710982,4.0,0
142,WtmK8leWX_TTThGAlkC-yg,El Rinconcito de Los Sabores Restaurant & Deli,"{'address1': '139-33 89th Ave', 'address2': None, 'address3': '', 'city': 'Jamaica', 'zip_code': '11435', 'country': 'US', 'state': 'NY', 'display_address': ['139-33 89th Ave', 'Jamaica, NY 11435']}","{'latitude': 40.7030296, 'longitude': -73.8119583}",8,mexican,2019-04-26 20:43:06.213285,4.0,0
143,m1sfDqgDiKKyUaXo9DWVeQ,Bodai Vegetarian,"{'address1': '59-08 Main St', 'address2': '', 'address3': '', 'city': 'Flushing', 'zip_code': '11355', 'country': 'US', 'state': 'NY', 'display_address': ['59-08 Main St', 'Flushing, NY 11355']}","{'latitude': 40.7436919012724, 'longitude': -73.8257248906878}",263,chinese,2019-04-26 20:28:13.794891,4.0,1
144,itblJyiTY2h2ACidLk66oA,Takahachi,"{'address1': '85 Ave A', 'address2': '', 'address3': '', 'city': 'New York', 'zip_code': '10009', 'country': 'US', 'state': 'NY', 'display_address': ['85 Ave A', 'New York, NY 10009']}","{'latitude': 40.725315, 'longitude': -73.984436}",529,japanese,2019-04-26 20:50:11.493659,4.0,1
145,y-XNT1kgQz4jzGiOb3PACA,My Kitchen,"{'address1': '106-17 Metropolitan Ave', 'address2': '', 'address3': '', 'city': 'Forest Hills', 'zip_code': '11375', 'country': 'US', 'state': 'NY', 'display_address': ['106-17 Metropolitan Ave', 'Forest Hills, NY 11375']}","{'latitude': 40.709993, 'longitude': -73.846392}",89,italian,2019-04-26 20:46:01.404426,4.0,0
146,0Tvwk0hvgaY0QVIsZGTZKQ,Antica Ristorante,"{'address1': '8 Stone St', 'address2': '', 'address3': '', 'city': 'New York', 'zip_code': '10004', 'country': 'US', 'state': 'NY', 'display_address': ['8 Stone St', 'New York, NY 10004']}","{'latitude': 40.7039355145338, 'longitude': -74.0121731758117}",441,italian,2019-04-26 20:44:20.485172,4.5,1
147,oe8GEFE4QLFAKt87y7zcgA,Very Fresh Noodles,"{'address1': '425 W 15th St', 'address2': None, 'address3': '', 'city': 'New York', 'zip_code': '10011', 'country': 'US', 'state': 'NY', 'display_address': ['425 W 15th St', 'New York, NY 10011']}","{'latitude': 40.7423387008486, 'longitude': -74.00625}",761,indian,2019-04-26 20:31:53.280463,4.5,1
148,uwUzZf2IQFVb5puJuNd9rA,Blue Agave Mexican Restaurant & Bar,"{'address1': '7201 16th Ave', 'address2': '', 'address3': '', 'city': 'Brooklyn', 'zip_code': '11204', 'country': 'US', 'state': 'NY', 'display_address': ['7201 16th Ave', 'Brooklyn, NY 11204']}","{'latitude': 40.6178877280414, 'longitude': -73.9990214085986}",118,mexican,2019-04-26 20:42:09.575952,3.5,0
149,DmLmy-enZs9wOWhFJF3p5A,El Barrio Burritos,"{'address1': '796 Franklin Ave', 'address2': '', 'address3': '', 'city': 'Brooklyn', 'zip_code': '11238', 'country': 'US', 'state': 'NY', 'display_address': ['796 Franklin Ave', 'Brooklyn, NY 11238']}","{'latitude': 40.6712799, 'longitude': -73.9579086}",186,mexican,2019-04-26 20:42:24.311115,3.0,0
150,iAlqJJHbbeY2Lb7tPt_CQA,86 Fu Kee,"{'address1': '2211 86th St', 'address2': '', 'address3': '', 'city': 'Brooklyn', 'zip_code': '11214', 'country': 'US', 'state': 'NY', 'display_address': ['2211 86th St', 'Brooklyn, NY 11214']}","{'latitude': 40.601908, 'longitude': -73.993218}",154,chinese,2019-04-26 20:28:55.712749,3.5,0
151,nI1UYDCYUTt23TpGxqnLKg,Buddakan,"{'address1': '75 9th Ave', 'address2': None, 'address3': '', 'city': 'New York', 'zip_code': '10011', 'country': 'US', 'state': 'NY', 'display_address': ['75 9th Ave', 'New York, NY 10011']}","{'latitude': 40.7422762672197, 'longitude': -74.0048000961542}",3739,indian,2019-04-26 20:32:05.944010,4.0,1
152,ItL1MPc-ruJagHTkdshW7w,Dong Bo Sung,"{'address1': '2169 Lemoine Ave', 'address2': '', 'address3': '', 'city': 'Fort Lee', 'zip_code': '07024', 'country': 'US', 'state': 'NJ', 'display_address': ['2169 Lemoine Ave', 'Fort Lee, NJ 07024']}","{'latitude': 40.85667, 'longitude': -73.96741}",69,korean,2019-04-26 20:33:37.866018,3.5,0
153,REIcoQFvGB7B6S0GmqHo1A,Hakubai,"{'address1': '66 Park Ave', 'address2': '', 'address3': '', 'city': 'New York', 'zip_code': '10016', 'country': 'US', 'state': 'NY', 'display_address': ['66 Park Ave', 'New York, NY 10016']}","{'latitude': 40.74954, 'longitude': -73.97986}",108,japanese,2019-04-26 20:50:33.416397,4.0,0
154,rPy1rO3KEsSiVO0DXfDN3g,Layaly Cafe,"{'address1': '4409 Broadway', 'address2': None, 'address3': '', 'city': 'Astoria', 'zip_code': '11103', 'country': 'US', 'state': 'NY', 'display_address': ['4409 Broadway', 'Astoria, NY 11103']}","{'latitude': 40.7574149828242, 'longitude': -73.9153653450743}",143,indian,2019-04-26 20:31:53.689118,4.5,0
155,25npnVAlhRjguunYS8zy8w,Piccola Strada,"{'address1': '77 E 4th St', 'address2': '', 'address3': 'Between 5th Ave', 'city': 'New York', 'zip_code': '10003', 'country': 'US', 'state': 'NY', 'display_address': ['77 E 4th St', 'Between 5th Ave', 'New York, NY 10003']}","{'latitude': 40.726635460956, 'longitude': -73.9904360317688}",171,italian,2019-04-26 20:44:39.597130,4.5,0
156,sNr7HL0CE9AJu_SJNfRBZA,Soona' Mexican Cuisine,"{'address1': '6900 Park Ave', 'address2': '', 'address3': None, 'city': 'Guttenberg', 'zip_code': '07093', 'country': 'US', 'state': 'NJ', 'display_address': ['6900 Park Ave', 'Guttenberg, NJ 07093']}","{'latitude': 40.7921022226938, 'longitude': -74.0035550606074}",9,mexican,2019-04-26 20:43:05.479466,4.0,0
157,WThqnTprg2txsVBt7D0Tkg,Affable Eatery,"{'address1': '912 65th St', 'address2': '', 'address3': None, 'city': 'Brooklyn', 'zip_code': '11219', 'country': 'US', 'state': 'NY', 'display_address': ['912 65th St', 'Brooklyn, NY 11219']}","{'latitude': 40.6308805191034, 'longitude': -74.0100015895492}",164,chinese,2019-04-26 20:29:20.559375,3.0,0
158,U60GbyJIMzwKZaP5IRgnBg,Bar Veloce,"{'address1': '176 7th Ave', 'address2': None, 'address3': '', 'city': 'New York', 'zip_code': '10011', 'country': 'US', 'state': 'NY', 'display_address': ['176 7th Ave', 'New York, NY 10011']}","{'latitude': 40.742542, 'longitude': -73.996979}",179,italian,2019-04-26 20:45:57.786705,3.5,0
159,uvQM9dckyv8RZB3hQYrKKw,The Grotto Pizzeria & Ristorante,"{'address1': '69 New St', 'address2': '', 'address3': '', 'city': 'New York', 'zip_code': '10004', 'country': 'US', 'state': 'NY', 'display_address': ['69 New St', 'New York, NY 10004']}","{'latitude': 40.70566, 'longitude': -74.0124}",128,italian,2019-04-26 20:46:07.106120,3.5,0
160,zDujEq9qZk13nBcG2PH4tA,Il Falco,"{'address1': '21-50 44th Dr', 'address2': '', 'address3': '', 'city': 'Long Island City', 'zip_code': '11101', 'country': 'US', 'state': 'NY', 'display_address': ['21-50 44th Dr', 'Long Island City, NY 11101']}","{'latitude': 40.7476595714373, 'longitude': -73.9455319123659}",267,italian,2019-04-26 20:44:23.789255,4.5,1
161,Q8U5xfrSi35qRolA0UV2SA,Hwang's Korean BBQ,"{'address1': '41-17 Union St', 'address2': '', 'address3': '', 'city': 'Flushing', 'zip_code': '11355', 'country': 'US', 'state': 'NY', 'display_address': ['41-17 Union St', 'Flushing, NY 11355']}","{'latitude': 40.7589201, 'longitude': -73.8255768}",2,korean,2019-04-26 20:33:58.125370,3.0,0
162,39g9pylx-xeIHihTe76HbA,Fermento,"{'address1': '358 Kosciuszko St', 'address2': '', 'address3': None, 'city': 'Brooklyn', 'zip_code': '11221', 'country': 'US', 'state': 'NY', 'display_address': ['358 Kosciuszko St', 'Brooklyn, NY 11221']}","{'latitude': 40.6917733468969, 'longitude': -73.9399936793105}",28,italian,2019-04-26 20:45:02.832971,4.5,0
163,OfhbwhWzIn6TYYpubLZNsQ,Tang Maru,"{'address1': '500 10th St', 'address2': '', 'address3': '', 'city': 'Palisades Park', 'zip_code': '07650', 'country': 'US', 'state': 'NJ', 'display_address': ['500 10th St', 'Palisades Park, NJ 07650']}","{'latitude': 40.8472084713549, 'longitude': -73.9845913276076}",179,korean,2019-04-26 20:33:17.469520,4.0,0
164,h37t9rA06Sr4EetJjKrfzw,Don Angie,"{'address1': '103 Greenwich Ave', 'address2': '', 'address3': None, 'city': 'New York', 'zip_code': '10014', 'country': 'US', 'state': 'NY', 'display_address': ['103 Greenwich Ave', 'New York, NY 10014']}","{'latitude': 40.73778, 'longitude': -74.00197}",210,italian,2019-04-26 20:44:18.776843,4.5,1
165,UC3n_0vZ5zI1fvi7UzNZAg,Sabai Thai Restaurant,"{'address1': '432 Park Ave S', 'address2': None, 'address3': '', 'city': 'New York', 'zip_code': '10016', 'country': 'US', 'state': 'NY', 'display_address': ['432 Park Ave S', 'New York, NY 10016']}","{'latitude': 40.74422, 'longitude': -73.98365}",172,indian,2019-04-26 20:32:05.469735,4.5,0
166,etIbdlTKz2yLkvr9MWNPvw,Sushi Island,"{'address1': '87-18 Queens Blvd', 'address2': '', 'address3': '', 'city': 'Elmhurst', 'zip_code': '11373', 'country': 'US', 'state': 'NY', 'display_address': ['87-18 Queens Blvd', 'Elmhurst, NY 11373']}","{'latitude': 40.7349699, 'longitude': -73.87586}",320,japanese,2019-04-26 20:50:45.573979,3.5,1
167,LrFnMmjirO9jtyo0tTdfVg,Taste of Shanghai,"{'address1': '42 Mott St', 'address2': '', 'address3': None, 'city': 'New York', 'zip_code': '10013', 'country': 'US', 'state': 'NY', 'display_address': ['42 Mott St', 'New York, NY 10013']}","{'latitude': 40.715249679603, 'longitude': -73.998610561094}",46,chinese,2019-04-26 20:29:45.570155,3.0,0
168,PmnBdxDc11q8n7A80rj0FA,Feng Mao,"{'address1': '136-88 Roosevelt Ave', 'address2': '', 'address3': '', 'city': 'Flushing', 'zip_code': '11354', 'country': 'US', 'state': 'NY', 'display_address': ['136-88 Roosevelt Ave', 'Flushing, NY 11354']}","{'latitude': 40.760191, 'longitude': -73.8269544}",19,korean,2019-04-26 20:33:54.117110,2.5,0
169,6qzNc9Z9DHYYleKqrW_K3g,Takashi,"{'address1': '456 Hudson St', 'address2': '', 'address3': '', 'city': 'New York', 'zip_code': '10014', 'country': 'US', 'state': 'NY', 'display_address': ['456 Hudson St', 'New York, NY 10014']}","{'latitude': 40.7313524, 'longitude': -74.0065048}",944,japanese,2019-04-26 20:49:45.961297,4.0,1
170,sBP8072dTkHDHyS8MTaZcQ,Coatzingo Restaurant,"{'address1': '79-11 Roosevelt Ave', 'address2': '', 'address3': '', 'city': 'Jackson Heights', 'zip_code': '11372', 'country': 'US', 'state': 'NY', 'display_address': ['79-11 Roosevelt Ave', 'Jackson Heights, NY 11372']}","{'latitude': 40.74759, 'longitude': -73.88623}",47,mexican,2019-04-26 20:41:53.751867,4.0,0
171,7K9WGGP9SOUxdlJ4ozFy8A,Meet The Meat,"{'address1': '2392 21st St', 'address2': '', 'address3': '', 'city': 'Astoria', 'zip_code': '11105', 'country': 'US', 'state': 'NY', 'display_address': ['2392 21st St', 'Astoria, NY 11105']}","{'latitude': 40.7769295040115, 'longitude': -73.9214426951538}",296,indian,2019-04-26 20:31:03.450099,4.5,1
172,zaYK-LuVRUoUVt6EV-xmPg,Tokyo Record Bar,"{'address1': '127 Macdougal St', 'address2': '', 'address3': None, 'city': 'New York', 'zip_code': '10012', 'country': 'US', 'state': 'NY', 'display_address': ['127 Macdougal St', 'New York, NY 10012']}","{'latitude': 40.7305654051364, 'longitude': -74.0001550748959}",97,japanese,2019-04-26 20:50:51.044198,3.5,0
173,UrJkrJ5HsVGyLE2dogiUCA,Ambrosio Italian Restaurant & Banquet Hall,"{'address1': '2071 Clove Rd', 'address2': '', 'address3': None, 'city': 'Staten Island', 'zip_code': '10304', 'country': 'US', 'state': 'NY', 'display_address': ['2071 Clove Rd', 'Staten Island, NY 10304']}","{'latitude': 40.604972, 'longitude': -74.083163}",40,italian,2019-04-26 20:44:24.246459,5.0,0
174,k8GFfCXO2FIIJIo0ICYSRA,Bao Bao Cafe,"{'address1': '106 Greenwich St', 'address2': None, 'address3': '', 'city': 'New York', 'zip_code': '10006', 'country': 'US', 'state': 'NY', 'display_address': ['106 Greenwich St', 'New York, NY 10006']}","{'latitude': 40.70854, 'longitude': -74.01367}",112,chinese,2019-04-26 20:28:15.828355,4.0,0
175,0MqKMvDvmw6s3mnycYLcog,Josefina's Restaurant,"{'address1': '8440 Grand Ave', 'address2': '', 'address3': '', 'city': 'Elmhurst', 'zip_code': '11373', 'country': 'US', 'state': 'NY', 'display_address': ['8440 Grand Ave', 'Elmhurst, NY 11373']}","{'latitude': 40.734255, 'longitude': -73.882604}",18,mexican,2019-04-26 20:42:17.737366,4.5,0
176,Ko95LRE9AAvb2Lk9Iwh2-Q,Otto's Tacos,"{'address1': '141 2nd Ave', 'address2': None, 'address3': '', 'city': 'New York', 'zip_code': '10003', 'country': 'US', 'state': 'NY', 'display_address': ['141 2nd Ave', 'New York, NY 10003']}","{'latitude': 40.72914, 'longitude': -73.9874899}",720,mexican,2019-04-26 20:41:18.727294,4.0,1
177,EhJO7B2hzHq8NT8iFKoCwg,Hot Jalapeño,"{'address1': '219 E 116th St', 'address2': '', 'address3': '', 'city': 'New York', 'zip_code': '10029', 'country': 'US', 'state': 'NY', 'display_address': ['219 E 116th St', 'New York, NY 10029']}","{'latitude': 40.7976444478292, 'longitude': -73.9390864432851}",69,mexican,2019-04-26 20:42:11.283983,3.5,0
178,B0eYXTeHk4405VdIplHK_A,Dolce Fantasia,"{'address1': '1210 Forest Ave', 'address2': None, 'address3': '', 'city': 'Staten Island', 'zip_code': '10310', 'country': 'US', 'state': 'NY', 'display_address': ['1210 Forest Ave', 'Staten Island, NY 10310']}","{'latitude': 40.62627, 'longitude': -74.13019}",13,italian,2019-04-26 20:45:51.113891,5.0,0
179,6EArjn_iacj-yGVLTKWuEQ,Fushimi Williamsburg,"{'address1': '475 Driggs Ave', 'address2': '', 'address3': '', 'city': 'Brooklyn', 'zip_code': '11211', 'country': 'US', 'state': 'NY', 'display_address': ['475 Driggs Ave', 'Brooklyn, NY 11211']}","{'latitude': 40.718827, 'longitude': -73.954131}",576,japanese,2019-04-26 20:50:10.718536,4.0,1
180,8hPvJcOkU24zS88YGJ-qZA,Top Tortillas,"{'address1': '3038 Buhre Ave', 'address2': '', 'address3': '', 'city': 'Bronx', 'zip_code': '10461', 'country': 'US', 'state': 'NY', 'display_address': ['3038 Buhre Ave', 'Bronx, NY 10461']}","{'latitude': 40.84738, 'longitude': -73.83093}",33,mexican,2019-04-26 20:42:29.908372,4.0,0
181,nV-LbnEV_2OwXvXRany1sg,Hungry Burrito,"{'address1': '811 Seneca Ave', 'address2': '', 'address3': None, 'city': 'Ridgewood', 'zip_code': '11385', 'country': 'US', 'state': 'NY', 'display_address': ['811 Seneca Ave', 'Ridgewood, NY 11385']}","{'latitude': 40.7014612, 'longitude': -73.9051407}",25,mexican,2019-04-26 20:42:28.072985,4.0,0
182,VoAuIReq_cPUrFwxbWqG_Q,SalaThai Restaurant,"{'address1': '307 Amsterdam Ave', 'address2': '', 'address3': '', 'city': 'New York', 'zip_code': '10023', 'country': 'US', 'state': 'NY', 'display_address': ['307 Amsterdam Ave', 'New York, NY 10023']}","{'latitude': 40.7801199, 'longitude': -73.98032}",188,indian,2019-04-26 20:30:32.282490,4.5,0
183,IS94JDTcq_WedBcj6P4qpQ,Sushi on Jones,"{'address1': '210 W 10th St', 'address2': '', 'address3': None, 'city': 'New York', 'zip_code': '10014', 'country': 'US', 'state': 'NY', 'display_address': ['210 W 10th St', 'New York, NY 10014']}","{'latitude': 40.73399, 'longitude': -74.00418}",115,japanese,2019-04-26 20:50:32.414085,4.0,0
184,avtl5_yfrg8xjw3ntwQBLw,Chung Dam Dong Restaurant,"{'address1': '118 Broad Ave', 'address2': 'Ste N6-12', 'address3': None, 'city': 'Palisades Park', 'zip_code': '07650', 'country': 'US', 'state': 'NJ', 'display_address': ['118 Broad Ave', 'Ste N6-12', 'Palisades Park, NJ 07650']}","{'latitude': 40.844726, 'longitude': -73.9999327}",199,korean,2019-04-26 20:33:19.413375,4.0,0
185,BChQT-pQTio5KD6B7082yA,Deung Chon Shabu & Noodles,"{'address1': '36-34 Union St', 'address2': '', 'address3': '', 'city': 'Queens', 'zip_code': '11354', 'country': 'US', 'state': 'NY', 'display_address': ['36-34 Union St', 'Queens, NY 11354']}","{'latitude': 40.76275, 'longitude': -73.82801}",6,korean,2019-04-26 20:33:53.668781,3.5,0
186,Bk7METp9hGgm409E6EoBhw,Mani In Pasta,"{'address1': '245 E 14th St', 'address2': '', 'address3': None, 'city': 'New York', 'zip_code': '10016', 'country': 'US', 'state': 'NY', 'display_address': ['245 E 14th St', 'New York, NY 10016']}","{'latitude': 40.7326, 'longitude': -73.98515}",56,italian,2019-04-26 20:44:58.655498,4.5,0
187,tWSjcyxwBccZkEyhry_aEQ,Mokbar Brooklyn,"{'address1': '212 Flatbush Ave', 'address2': '', 'address3': None, 'city': 'Brooklyn', 'zip_code': '11217', 'country': 'US', 'state': 'NY', 'display_address': ['212 Flatbush Ave', 'Brooklyn, NY 11217']}","{'latitude': 40.6811485290527, 'longitude': -73.9756774902344}",119,korean,2019-04-26 20:33:34.180873,3.5,0
188,59hEst-eXa_psEtiZMLU6A,Joe's Italian Deli,"{'address1': '685 E 187th St', 'address2': None, 'address3': '', 'city': 'Bronx', 'zip_code': '10458', 'country': 'US', 'state': 'NY', 'display_address': ['685 E 187th St', 'Bronx, NY 10458']}","{'latitude': 40.8544073, 'longitude': -73.8848751}",97,indian,2019-04-26 20:30:25.014929,5.0,0
189,8qSOz7oTPUUCafsMOBBNEQ,Pisillo Italian Panini,"{'address1': '97 Nassau St', 'address2': '', 'address3': '', 'city': 'New York', 'zip_code': '10038', 'country': 'US', 'state': 'NY', 'display_address': ['97 Nassau St', 'New York, NY 10038']}","{'latitude': 40.710558, 'longitude': -74.007594}",536,italian,2019-04-26 20:44:16.824007,4.5,1
190,Da9aNH6kW3fv4mTzqx3yPw,Caffe Palermo,"{'address1': '148 Mulberry St', 'address2': '', 'address3': '', 'city': 'New York', 'zip_code': '10013', 'country': 'US', 'state': 'NY', 'display_address': ['148 Mulberry St', 'New York, NY 10013']}","{'latitude': 40.7189596, 'longitude': -73.9972725}",518,italian,2019-04-26 20:45:32.148237,3.5,1
191,ggcqa-tTLuvAuo0tGYccLA,Mekki NYC,"{'address1': '15 W 8th St', 'address2': '', 'address3': None, 'city': 'New York', 'zip_code': '10011', 'country': 'US', 'state': 'NY', 'display_address': ['15 W 8th St', 'New York, NY 10011']}","{'latitude': 40.7326203350478, 'longitude': -73.9970967190752}",102,indian,2019-04-26 20:30:41.202549,4.5,0
192,Huf9UUjd6iYCUuAiyPrPBA,Place To Beach,"{'address1': '1301 Broadwalk W', 'address2': '', 'address3': '', 'city': 'Brooklyn', 'zip_code': '11224', 'country': 'US', 'state': 'NY', 'display_address': ['1301 Broadwalk W', 'Brooklyn, NY 11224']}","{'latitude': 40.5732822946671, 'longitude': -73.9813919696086}",87,mexican,2019-04-26 20:42:54.414601,3.0,0
193,ZCAkVl5SeCDeBWg_xjfYeg,Clay Pot - East Village,"{'address1': ""58 St Mark's Pl"", 'address2': None, 'address3': '', 'city': 'New York', 'zip_code': '10003', 'country': 'US', 'state': 'NY', 'display_address': [""58 St Mark's Pl"", 'New York, NY 10003']}","{'latitude': 40.7279880270274, 'longitude': -73.9865907985248}",235,chinese,2019-04-26 20:27:59.408571,4.5,1
194,DGa4PysLx10aRnXqRQ4Cng,La Mesita Restaurant,"{'address1': '1513 Myrtle Ave', 'address2': None, 'address3': None, 'city': 'Brooklyn', 'zip_code': '11237', 'country': 'US', 'state': 'NY', 'display_address': ['1513 Myrtle Ave', 'Brooklyn, NY 11237']}","{'latitude': 40.6992569, 'longitude': -73.9152222}",73,mexican,2019-04-26 20:41:33.002561,4.0,0
195,2IrDzLVFUFPp229c1x8YNw,Hong Man,"{'address1': '27 Eldridge St', 'address2': '', 'address3': '', 'city': 'New York', 'zip_code': '10002', 'country': 'US', 'state': 'NY', 'display_address': ['27 Eldridge St', 'New York, NY 10002']}","{'latitude': 40.71516, 'longitude': -73.99374}",136,chinese,2019-04-26 20:28:32.639425,4.0,0
196,PbTqcNu_0PLfGJMn31SXPg,Ho Ho Restaurant,"{'address1': '235 Paterson Ave', 'address2': '', 'address3': '', 'city': 'East Rutherford', 'zip_code': '07073', 'country': 'US', 'state': 'NJ', 'display_address': ['235 Paterson Ave', 'East Rutherford, NJ 07073']}","{'latitude': 40.8337201, 'longitude': -74.097194}",85,korean,2019-04-26 20:33:18.217344,4.0,0
197,_gFBL4-GM8OeE_XY4_-iTA,Sugi Japanese Restaurant,"{'address1': '2117 State Rt 4', 'address2': '', 'address3': '', 'city': 'Fort Lee', 'zip_code': '07024', 'country': 'US', 'state': 'NJ', 'display_address': ['2117 State Rt 4', 'Fort Lee, NJ 07024']}","{'latitude': 40.86019, 'longitude': -73.97685}",15,japanese,2019-04-26 20:51:32.436579,3.5,0
198,47iHi0mYuq33INDWanGchw,Taco Electrico,"{'address1': '201 Park Ave S', 'address2': None, 'address3': None, 'city': 'New York', 'zip_code': '10003', 'country': 'US', 'state': 'NY', 'display_address': ['201 Park Ave S', 'New York, NY 10003']}","{'latitude': 40.736544, 'longitude': -73.988442}",68,mexican,2019-04-26 20:42:15.339673,3.5,0
199,gNlPrIFgZHqO4dUdhbfekw,Shi Miao Dao,"{'address1': '135-25 40th Rd', 'address2': '', 'address3': None, 'city': 'Flushing', 'zip_code': '11354', 'country': 'US', 'state': 'NY', 'display_address': ['135-25 40th Rd', 'Flushing, NY 11354']}","{'latitude': 40.7588371, 'longitude': -73.8307985}",32,chinese,2019-04-26 20:29:29.467847,3.5,0
200,ub2VfE7SRLJABAClzGZp3A,Tacombi - Flatiron,"{'address1': '30 W 24th St', 'address2': '', 'address3': '', 'city': 'New York', 'zip_code': '10010', 'country': 'US', 'state': 'NY', 'display_address': ['30 W 24th St', 'New York, NY 10010']}","{'latitude': 40.7428563, 'longitude': -73.9911656}",591,mexican,2019-04-26 20:41:39.786931,3.5,1
201,-yR4PHWqpkrPopwv4wrC5g,Taquerias Veracruz,"{'address1': '434 51st St', 'address2': '', 'address3': '', 'city': 'West New York', 'zip_code': '07093', 'country': 'US', 'state': 'NJ', 'display_address': ['434 51st St', 'West New York, NJ 07093']}","{'latitude': 40.7833448, 'longitude': -74.0197169}",30,mexican,2019-04-26 20:41:54.950025,4.5,0
202,vzDb6_Zkm4m8O7tNidojjA,Pier 76,"{'address1': '76 Bay St', 'address2': '', 'address3': '', 'city': 'Staten Island', 'zip_code': '10301', 'country': 'US', 'state': 'NY', 'display_address': ['76 Bay St', 'Staten Island, NY 10301']}","{'latitude': 40.640118, 'longitude': -74.0759269}",187,italian,2019-04-26 20:45:27.954958,4.0,0
203,BOz0qTUMtAfljd3Vn1rerQ,Pado,"{'address1': '199 2nd Ave', 'address2': None, 'address3': '', 'city': 'New York', 'zip_code': '10003', 'country': 'US', 'state': 'NY', 'display_address': ['199 2nd Ave', 'New York, NY 10003']}","{'latitude': 40.7314, 'longitude': -73.98589}",164,japanese,2019-04-26 20:49:39.515660,4.5,0
204,XZM8rb2G7iBY16bxSEkC0A,Son Kalguksu,"{'address1': '339 Broad Ave', 'address2': '', 'address3': '', 'city': 'Palisades Park', 'zip_code': '07650', 'country': 'US', 'state': 'NJ', 'display_address': ['339 Broad Ave', 'Palisades Park, NJ 07650']}","{'latitude': 40.8492632, 'longitude': -73.9970621}",31,korean,2019-04-26 20:33:28.914402,4.5,0
205,kHlYnhMOoMBbe3VCZflpKQ,Spy C Cuisine,"{'address1': '72-06 Austin', 'address2': '', 'address3': None, 'city': 'Forest Hills', 'zip_code': '11375', 'country': 'US', 'state': 'NY', 'display_address': ['72-06 Austin', 'Forest Hills, NY 11375']}","{'latitude': 40.71903, 'longitude': -73.84249}",119,chinese,2019-04-26 20:28:28.899736,4.0,0
206,Qgv2vyUV-DwK8YwrhU-jtw,Lan Sheng Restaurant,"{'address1': '128 W 36th St', 'address2': None, 'address3': '', 'city': 'New York', 'zip_code': '10018', 'country': 'US', 'state': 'NY', 'display_address': ['128 W 36th St', 'New York, NY 10018']}","{'latitude': 40.7517141867087, 'longitude': -73.9883603449123}",105,chinese,2019-04-26 20:28:42.421237,3.5,0
207,iFAAI-7NoceHYVybom5SyA,New Peking,"{'address1': '7715 37th Ave', 'address2': '', 'address3': '', 'city': 'Jackson Heights', 'zip_code': '11372', 'country': 'US', 'state': 'NY', 'display_address': ['7715 37th Ave', 'Jackson Heights, NY 11372']}","{'latitude': 40.7494475, 'longitude': -73.8884253}",55,chinese,2019-04-26 20:29:00.229328,3.5,0
208,kIm0oeOaVfC9-2flLPVklA,Patrizia's Pizza and Pasta,"{'address1': '462-466 2nd Ave', 'address2': '', 'address3': '', 'city': 'New York', 'zip_code': '10016', 'country': 'US', 'state': 'NY', 'display_address': ['462-466 2nd Ave', 'New York, NY 10016']}","{'latitude': 40.7398415, 'longitude': -73.9792862}",502,italian,2019-04-26 20:44:32.045800,4.0,1
209,F3XeukXccFSIC7taECxTkQ,Andrea Salumeria,"{'address1': '247 Central Ave', 'address2': 'Apt 3', 'address3': '', 'city': 'Jersey City', 'zip_code': '07307', 'country': 'US', 'state': 'NJ', 'display_address': ['247 Central Ave', 'Apt 3', 'Jersey City, NJ 07307']}","{'latitude': 40.74355, 'longitude': -74.0514}",233,indian,2019-04-26 20:30:20.844905,5.0,1
210,S0CYlCpjRfq13k2qz06DHw,Xiang Hotpot-Brooklyn,"{'address1': '5816 Fort Hamilton Pkwy', 'address2': '', 'address3': None, 'city': 'Brooklyn', 'zip_code': '11219', 'country': 'US', 'state': 'NY', 'display_address': ['5816 Fort Hamilton Pkwy', 'Brooklyn, NY 11219']}","{'latitude': 40.6339, 'longitude': -74.00467}",44,chinese,2019-04-26 20:28:44.096529,4.0,0
211,C7CFAdrczXxNhnN-MNJqmw,Niu Noodle House,"{'address1': '15 Greenwich Ave', 'address2': None, 'address3': '', 'city': 'New York', 'zip_code': '10014', 'country': 'US', 'state': 'NY', 'display_address': ['15 Greenwich Ave', 'New York, NY 10014']}","{'latitude': 40.734352, 'longitude': -74.000082}",655,chinese,2019-04-26 20:28:13.435479,4.0,1
212,_nywvJGzmWJEH2FceAvRbQ,Purple Rice Korean Kitchen,"{'address1': '263 W 30th St', 'address2': '', 'address3': None, 'city': 'New York', 'zip_code': '10001', 'country': 'US', 'state': 'NY', 'display_address': ['263 W 30th St', 'New York, NY 10001']}","{'latitude': 40.74964, 'longitude': -73.99466}",166,korean,2019-04-26 20:33:17.371484,4.0,0
213,eL1ojVz0QYCZ7xJOii46LQ,Papilles,"{'address1': '127 E 7th St', 'address2': None, 'address3': '', 'city': 'New York', 'zip_code': '10009', 'country': 'US', 'state': 'NY', 'display_address': ['127 E 7th St', 'New York, NY 10009']}","{'latitude': 40.72637, 'longitude': -73.98403}",40,indian,2019-04-26 20:32:26.055377,5.0,0
214,_V7YsDQ4Lb41rqfkuPzm1w,Trattoria Pesce Pasta,"{'address1': '262 Bleecker St', 'address2': '', 'address3': '', 'city': 'New York', 'zip_code': '10014', 'country': 'US', 'state': 'NY', 'display_address': ['262 Bleecker St', 'New York, NY 10014']}","{'latitude': 40.73115, 'longitude': -74.00319}",218,italian,2019-04-26 20:45:01.998692,4.0,1
215,6J6u3doRNRrewj4_N_QgPA,Yamashiro,"{'address1': '466 Myrtle Ave', 'address2': '', 'address3': '', 'city': 'Brooklyn', 'zip_code': '11205', 'country': 'US', 'state': 'NY', 'display_address': ['466 Myrtle Ave', 'Brooklyn, NY 11205']}","{'latitude': 40.69326, 'longitude': -73.9666}",122,japanese,2019-04-26 20:50:57.277770,3.5,0
216,ffJddI2ICrCz6q_QWrU5VQ,Da Ciro Brooklyn,"{'address1': '458 Myrtle Ave', 'address2': '', 'address3': '', 'city': 'Brooklyn', 'zip_code': '11205', 'country': 'US', 'state': 'NY', 'display_address': ['458 Myrtle Ave', 'Brooklyn, NY 11205']}","{'latitude': 40.6931299, 'longitude': -73.96716}",74,italian,2019-04-26 20:44:24.764411,4.5,0
217,8FvdmDeaE74iYtslwNPITg,Lot 2,"{'address1': '687 6th Ave', 'address2': '', 'address3': '', 'city': 'Brooklyn', 'zip_code': '11215', 'country': 'US', 'state': 'NY', 'display_address': ['687 6th Ave', 'Brooklyn, NY 11215']}","{'latitude': 40.6605911254883, 'longitude': -73.9903106689453}",252,indian,2019-04-26 20:32:33.245703,4.5,1
218,cGuJmzRd0YC7al-3HZiMhQ,Tsujita,"{'address1': '595 River Rd', 'address2': '', 'address3': 'Mitsuwa Marketplace', 'city': 'Edgewater', 'zip_code': '07020', 'country': 'US', 'state': 'NJ', 'display_address': ['595 River Rd', 'Mitsuwa Marketplace', 'Edgewater, NJ 07020']}","{'latitude': 40.8160490605783, 'longitude': -73.9800697932541}",38,japanese,2019-04-26 20:51:01.092586,4.0,0
219,n4dX_B5xOJWHLKvqZ5o82g,Doner Kebab NYC,"{'address1': '34 Willoughby St', 'address2': '', 'address3': None, 'city': 'Brooklyn', 'zip_code': '11201', 'country': 'US', 'state': 'NY', 'display_address': ['34 Willoughby St', 'Brooklyn, NY 11201']}","{'latitude': 40.69216, 'longitude': -73.98755}",146,indian,2019-04-26 20:32:39.751133,4.5,0
220,uq-jeUk2yNOrfUKdRIpE_w,Piccoli Togo Windsor Terrace,"{'address1': '157 A Prospect Park SW', 'address2': '', 'address3': '', 'city': 'Brooklyn', 'zip_code': '11218', 'country': 'US', 'state': 'NY', 'display_address': ['157 A Prospect Park SW', 'Brooklyn, NY 11218']}","{'latitude': 40.654819, 'longitude': -73.973477}",78,italian,2019-04-26 20:45:39.121373,4.0,0
221,a5H9p1B6m6WPVjakPylvdA,Spicy Shallot,"{'address1': '7701 Woodside Ave', 'address2': '', 'address3': '', 'city': 'Elmhurst', 'zip_code': '11373', 'country': 'US', 'state': 'NY', 'display_address': ['7701 Woodside Ave', 'Elmhurst, NY 11373']}","{'latitude': 40.7437053273707, 'longitude': -73.8878916857991}",559,japanese,2019-04-26 20:50:21.243155,3.5,1
222,mfJaJSspapkcL2MIsNuUjw,Citrico,"{'address1': '681 Washington Ave', 'address2': '', 'address3': '', 'city': 'Brooklyn', 'zip_code': '11238', 'country': 'US', 'state': 'NY', 'display_address': ['681 Washington Ave', 'Brooklyn, NY 11238']}","{'latitude': 40.6768903036116, 'longitude': -73.9635266537943}",198,mexican,2019-04-26 20:41:40.807643,4.0,0
223,6-ShONYFIM9K8HAUOhZVlw,Da Mikele by Luzzo's,"{'address1': '275 Church St', 'address2': '', 'address3': '', 'city': 'New York', 'zip_code': '10013', 'country': 'US', 'state': 'NY', 'display_address': ['275 Church St', 'New York, NY 10013']}","{'latitude': 40.718477, 'longitude': -74.004802}",329,italian,2019-04-26 20:44:59.335607,4.0,1
224,UuiW2A-O11Q0baqSEUMvZA,Miyabi Asian Fusion,"{'address1': '1348 Forest Ave', 'address2': None, 'address3': '', 'city': 'Staten Island', 'zip_code': '10302', 'country': 'US', 'state': 'NY', 'display_address': ['1348 Forest Ave', 'Staten Island, NY 10302']}","{'latitude': 40.6258092020868, 'longitude': -74.1345641477488}",290,japanese,2019-04-26 20:49:41.790481,4.5,1
225,8XtfUcP_GXypdVZSJCN0tQ,Fiesta Hut,"{'address1': '227 Park Ave', 'address2': '', 'address3': '', 'city': 'East Rutherford', 'zip_code': '07073', 'country': 'US', 'state': 'NJ', 'display_address': ['227 Park Ave', 'East Rutherford, NJ 07073']}","{'latitude': 40.82996, 'longitude': -74.1001299}",93,mexican,2019-04-26 20:42:09.029826,3.5,0
226,nGFhlGsPlf6Uu5-xjIosQA,Don Chucho,"{'address1': '1112 Forest Ave', 'address2': None, 'address3': '', 'city': 'Staten Island', 'zip_code': '10310', 'country': 'US', 'state': 'NY', 'display_address': ['1112 Forest Ave', 'Staten Island, NY 10310']}","{'latitude': 40.6267799, 'longitude': -74.12688}",14,mexican,2019-04-26 20:42:19.125525,4.5,0
227,emm90bgqh6-QZ8m3IZ_H9g,Kasai,"{'address1': '2524 Coney Island Ave', 'address2': '', 'address3': '', 'city': 'Sheepshead Bay', 'zip_code': '11223', 'country': 'US', 'state': 'NY', 'display_address': ['2524 Coney Island Ave', 'Sheepshead Bay, NY 11223']}","{'latitude': 40.595281824641, 'longitude': -73.9612298870106}",55,japanese,2019-04-26 20:50:58.336667,4.0,0
228,EegEULbC3qoMA-FaEjivtA,Barbuto,"{'address1': '775 Washington St', 'address2': None, 'address3': '', 'city': 'New York', 'zip_code': '10014', 'country': 'US', 'state': 'NY', 'display_address': ['775 Washington St', 'New York, NY 10014']}","{'latitude': 40.7377203192966, 'longitude': -74.0080020711638}",885,italian,2019-04-26 20:45:08.202317,4.0,1
229,6-0Et7i2R2nKTpPpevYo1Q,Bunsik Nara,"{'address1': '254 Broad Ave', 'address2': '', 'address3': '', 'city': 'Palisades Park', 'zip_code': '07650', 'country': 'US', 'state': 'NJ', 'display_address': ['254 Broad Ave', 'Palisades Park, NJ 07650']}","{'latitude': 40.847268, 'longitude': -73.998012}",94,korean,2019-04-26 20:33:40.939693,3.0,0
230,I3wIxlUbLXwnq70_rwQruA,Marcha Cocina,"{'address1': '4055 Broadway', 'address2': '', 'address3': '', 'city': 'New York', 'zip_code': '10032', 'country': 'US', 'state': 'NY', 'display_address': ['4055 Broadway', 'New York, NY 10032']}","{'latitude': 40.84307, 'longitude': -73.9394}",298,indian,2019-04-26 20:32:28.607407,4.5,1
231,z_emTJ2d3kDEe8mz3w-KNw,Alta Calidad,"{'address1': '552 Vanderbilt Ave', 'address2': '', 'address3': None, 'city': 'Brooklyn', 'zip_code': '11238', 'country': 'US', 'state': 'NY', 'display_address': ['552 Vanderbilt Ave', 'Brooklyn, NY 11238']}","{'latitude': 40.68011, 'longitude': -73.96818}",152,mexican,2019-04-26 20:41:29.871704,4.0,0
232,RgIFYmjtBp5k90AK1jP7Zw,Peking Express Chinese Rest,"{'address1': '13412 Rockaway Blvd', 'address2': None, 'address3': None, 'city': 'South Ozone Park', 'zip_code': '11420', 'country': 'US', 'state': 'NY', 'display_address': ['13412 Rockaway Blvd', 'South Ozone Park, NY 11420']}","{'latitude': 40.6743, 'longitude': -73.804}",34,chinese,2019-04-26 20:29:26.997446,3.5,0
233,s3jou_L_LVYGkNHiuhjlew,Boucherie West Village,"{'address1': '99 7th Ave S', 'address2': '', 'address3': None, 'city': 'New York', 'zip_code': '10014', 'country': 'US', 'state': 'NY', 'display_address': ['99 7th Ave S', 'New York, NY 10014']}","{'latitude': 40.733063, 'longitude': -74.0028772}",1008,indian,2019-04-26 20:30:38.004215,4.5,1
234,NMvGg6AwvEMUEjIF1z9Ghw,Puebla,"{'address1': '120 Essex St', 'address2': '', 'address3': '', 'city': 'New York', 'zip_code': '10002', 'country': 'US', 'state': 'NY', 'display_address': ['120 Essex St', 'New York, NY 10002']}","{'latitude': 40.7191285440113, 'longitude': -73.987642195336}",18,mexican,2019-04-26 20:42:34.672278,4.0,0
235,4FD0TAxe70nb3ngk3sXF9Q,Uluh,"{'address1': '152 2nd Ave', 'address2': 'Ste A', 'address3': '', 'city': 'New York', 'zip_code': '10003', 'country': 'US', 'state': 'NY', 'display_address': ['152 2nd Ave', 'Ste A', 'New York, NY 10003']}","{'latitude': 40.7293403, 'longitude': -73.9866071}",94,chinese,2019-04-26 20:28:21.818637,4.0,0
236,_QxcsvPsYnOgPhiK6gzCfg,SHOJI at 69 Leonard St,"{'address1': '69 Leonard St', 'address2': '', 'address3': None, 'city': 'New York', 'zip_code': '10013', 'country': 'US', 'state': 'NY', 'display_address': ['69 Leonard St', 'New York, NY 10013']}","{'latitude': 40.71772, 'longitude': -74.00538}",42,japanese,2019-04-26 20:50:31.078425,4.5,0
237,fuS39acPaRi38DhSSwEI4Q,Felice,"{'address1': '15 Gold St', 'address2': '', 'address3': '', 'city': 'New York', 'zip_code': '10038', 'country': 'US', 'state': 'NY', 'display_address': ['15 Gold St', 'New York, NY 10038']}","{'latitude': 40.70789, 'longitude': -74.00712}",312,italian,2019-04-26 20:44:46.321523,4.0,1
238,4-hz17jhnNBsmOaev2Rr8A,Xinjiang BBQ Cart #2,"{'address1': '39th Ave & Main Street', 'address2': '', 'address3': '', 'city': 'Flushing', 'zip_code': '11354', 'country': 'US', 'state': 'NY', 'display_address': ['39th Ave & Main Street', 'Flushing, NY 11354']}","{'latitude': 40.76016282775, 'longitude': -73.830214959531}",17,chinese,2019-04-26 20:29:09.392163,4.0,0
239,wZkZmjZEJDraLJgAalnHvA,Pisticci,"{'address1': '125 La Salle St', 'address2': '', 'address3': '', 'city': 'New York', 'zip_code': '10027', 'country': 'US', 'state': 'NY', 'display_address': ['125 La Salle St', 'New York, NY 10027']}","{'latitude': 40.8141624, 'longitude': -73.960288}",786,italian,2019-04-26 20:44:29.435197,4.0,1
240,veku2cg2qaV-7MxwhOMBmg,Judge Roy Bean Public House,"{'address1': '38 W 56th St', 'address2': None, 'address3': '', 'city': 'New York', 'zip_code': '10019', 'country': 'US', 'state': 'NY', 'display_address': ['38 W 56th St', 'New York, NY 10019']}","{'latitude': 40.7629158108786, 'longitude': -73.9761248066812}",634,indian,2019-04-26 20:31:17.298262,4.5,1
241,hemsJKNncqsFiOAY_5v2rQ,Taco Fun,"{'address1': '32-67 Francis Lewis Blvd', 'address2': None, 'address3': '', 'city': 'Flushing', 'zip_code': '11358', 'country': 'US', 'state': 'NY', 'display_address': ['32-67 Francis Lewis Blvd', 'Flushing, NY 11358']}","{'latitude': 40.7678895238873, 'longitude': -73.7908273245693}",46,mexican,2019-04-26 20:43:05.660413,3.0,0
242,V4kZqDh4Gdu8pVfScb4RXQ,Da Noi Restaurant on Victory Blvd,"{'address1': '4358 Victory Blvd', 'address2': '', 'address3': '', 'city': 'Staten Island', 'zip_code': '10314', 'country': 'US', 'state': 'NY', 'display_address': ['4358 Victory Blvd', 'Staten Island, NY 10314']}","{'latitude': 40.58769, 'longitude': -74.19692}",68,italian,2019-04-26 20:46:03.377591,4.0,0
243,1xxx4X6harPvGMcPmS15BA,Miso Ramen,"{'address1': '189 Newark Ave', 'address2': '', 'address3': '', 'city': 'Jersey City', 'zip_code': '07302', 'country': 'US', 'state': 'NJ', 'display_address': ['189 Newark Ave', 'Jersey City, NJ 07302']}","{'latitude': 40.7213095265887, 'longitude': -74.0456302242358}",386,japanese,2019-04-26 20:50:20.738461,4.0,1
244,v5CsUc6pr7foHWsoQ0Y36Q,Ho Wan Restaurant,"{'address1': '111-05 Liberty Ave', 'address2': '', 'address3': '', 'city': 'Richmond Hill', 'zip_code': '11419', 'country': 'US', 'state': 'NY', 'display_address': ['111-05 Liberty Ave', 'Richmond Hill, NY 11419']}","{'latitude': 40.68508, 'longitude': -73.83095}",94,chinese,2019-04-26 20:28:58.233915,3.5,0
245,5LSWzldMZLtahaMESfD25A,Sushiyama,"{'address1': '6612 Ave U', 'address2': '', 'address3': '', 'city': 'Brooklyn', 'zip_code': '11234', 'country': 'US', 'state': 'NY', 'display_address': ['6612 Ave U', 'Brooklyn, NY 11234']}","{'latitude': 40.617012944412, 'longitude': -73.9097041912628}",63,japanese,2019-04-26 20:51:20.367461,3.0,0
246,6Dyvbe04UjeNTh7YbykZ8w,Papi's Grill,"{'address1': '161 7th Ave', 'address2': '', 'address3': '', 'city': 'Brooklyn', 'zip_code': '11215', 'country': 'US', 'state': 'NY', 'display_address': ['161 7th Ave', 'Brooklyn, NY 11215']}","{'latitude': 40.67212, 'longitude': -73.97704}",80,mexican,2019-04-26 20:41:50.155429,4.0,0
247,z28cRtpdfiJfzIp1vkMAwQ,Koko Wings,"{'address1': '248 W 106th St', 'address2': None, 'address3': '', 'city': 'New York', 'zip_code': '10025', 'country': 'US', 'state': 'NY', 'display_address': ['248 W 106th St', 'New York, NY 10025']}","{'latitude': 40.80096, 'longitude': -73.96734}",289,korean,2019-04-26 20:33:23.569538,4.0,1
248,wdGMVLUzocmnl2tST0lheg,YunShang Rice Noodle House,"{'address1': '53 Bayard St', 'address2': None, 'address3': '', 'city': 'New York', 'zip_code': '10013', 'country': 'US', 'state': 'NY', 'display_address': ['53 Bayard St', 'New York, NY 10013']}","{'latitude': 40.71525, 'longitude': -73.99765}",84,chinese,2019-04-26 20:28:24.603733,4.0,0
249,hXqrA_Z3jZ8Q1O6ZehWSwQ,Sami's Kabab House,"{'address1': '35-57 Crescent St', 'address2': '', 'address3': None, 'city': 'Astoria', 'zip_code': '11106', 'country': 'US', 'state': 'NY', 'display_address': ['35-57 Crescent St', 'Astoria, NY 11106']}","{'latitude': 40.7587874, 'longitude': -73.9326435}",305,indian,2019-04-26 20:30:23.146640,4.5,1
250,9GEPKXerLoWIKefSvfnurw,Duri Pocha,"{'address1': '441 Broad Ave', 'address2': '', 'address3': '', 'city': 'Ridgefield', 'zip_code': '07657', 'country': 'US', 'state': 'NJ', 'display_address': ['441 Broad Ave', 'Ridgefield, NJ 07657']}","{'latitude': 40.8288801, 'longitude': -74.0104649}",28,korean,2019-04-26 20:33:36.712527,4.0,0
251,zekbMn7KWtzxTFLtfEqb1w,Rincon Criollo,"{'address1': '40-09 Junction Blvd', 'address2': '', 'address3': '', 'city': 'Corona', 'zip_code': '11368', 'country': 'US', 'state': 'NY', 'display_address': ['40-09 Junction Blvd', 'Corona, NY 11368']}","{'latitude': 40.7489644, 'longitude': -73.8690814}",741,indian,2019-04-26 20:30:47.552071,4.5,1
252,herb-gOpfjJGeiYWXb2liw,presto fresh mexican,"{'address1': '429 W 125th St', 'address2': '', 'address3': None, 'city': 'New York', 'zip_code': '10027', 'country': 'US', 'state': 'NY', 'display_address': ['429 W 125th St', 'New York, NY 10027']}","{'latitude': 40.81221, 'longitude': -73.95502}",6,mexican,2019-04-26 20:42:59.328787,4.5,0
253,mhrLDFTxUzW2koRAzjlt5g,Chavela's,"{'address1': '736 Franklin Ave', 'address2': None, 'address3': '', 'city': 'Brooklyn', 'zip_code': '11238', 'country': 'US', 'state': 'NY', 'display_address': ['736 Franklin Ave', 'Brooklyn, NY 11238']}","{'latitude': 40.673484, 'longitude': -73.957267}",979,mexican,2019-04-26 20:41:24.365923,4.0,1
254,pCeNP_wq7i1Pgl0yCYEgag,Maxi’s Noodle,"{'address1': '60-04 Kissena Blvd', 'address2': None, 'address3': '', 'city': 'Flushing', 'zip_code': '11355', 'country': 'US', 'state': 'NY', 'display_address': ['60-04 Kissena Blvd', 'Flushing, NY 11355']}","{'latitude': 40.7398181, 'longitude': -73.8153168}",55,indian,2019-04-26 20:31:39.832911,5.0,0
255,6xCZHAr7yj_vWwRJalAEOg,Seed + Mill,"{'address1': '409 W 15th St', 'address2': '', 'address3': 'Chelsea Market', 'city': 'New York', 'zip_code': '10011', 'country': 'US', 'state': 'NY', 'display_address': ['409 W 15th St', 'Chelsea Market', 'New York, NY 10011']}","{'latitude': 40.7420723, 'longitude': -74.0056454}",190,indian,2019-04-26 20:32:24.157266,4.5,0
256,bKXnm2k44mSdU0fP69lY-g,Szechuan Mountain House,"{'address1': '39-16 Prince St', 'address2': 'Ste G03', 'address3': '', 'city': 'Flushing', 'zip_code': '11354', 'country': 'US', 'state': 'NY', 'display_address': ['39-16 Prince St', 'Ste G03', 'Flushing, NY 11354']}","{'latitude': 40.7593930266428, 'longitude': -73.8326038269836}",271,chinese,2019-04-26 20:28:05.080703,4.0,1
257,ojeMH0rbOOMx9ajChbVkJQ,Papatzul,"{'address1': '55 Grand St', 'address2': None, 'address3': '', 'city': 'New York', 'zip_code': '10013', 'country': 'US', 'state': 'NY', 'display_address': ['55 Grand St', 'New York, NY 10013']}","{'latitude': 40.722148, 'longitude': -74.003677}",395,mexican,2019-04-26 20:41:54.668022,3.5,1
258,XoDR_T-ZKYJtZgCocEDcyA,Print,"{'address1': '653 11th Ave', 'address2': '', 'address3': '', 'city': 'New York', 'zip_code': '10036', 'country': 'US', 'state': 'NY', 'display_address': ['653 11th Ave', 'New York, NY 10036']}","{'latitude': 40.76452, 'longitude': -73.99586}",858,indian,2019-04-26 20:32:24.334738,4.0,1
259,GNbzHUMc2BB23-kW4cJboQ,OMAKASE by TEISUI,"{'address1': '246 5th Ave', 'address2': None, 'address3': '', 'city': 'New York', 'zip_code': '10001', 'country': 'US', 'state': 'NY', 'display_address': ['246 5th Ave', 'New York, NY 10001']}","{'latitude': 40.74465, 'longitude': -73.98755}",75,japanese,2019-04-26 20:50:21.931457,4.0,0
260,LWp9J-jrHw9v-qyFgAYfyw,Xi'an Famous Foods,"{'address1': '55-01 37th Ave', 'address2': '', 'address3': None, 'city': 'Woodside', 'zip_code': '11377', 'country': 'US', 'state': 'NY', 'display_address': ['55-01 37th Ave', 'Woodside, NY 11377']}","{'latitude': 40.75105, 'longitude': -73.90653}",6,chinese,2019-04-26 20:29:32.354947,5.0,0
261,5PD9q8jp20c4vUBX8Z81sg,Tacos El Rey,"{'address1': '3168 Coney Island Ave', 'address2': '', 'address3': '', 'city': 'Brooklyn', 'zip_code': '11235', 'country': 'US', 'state': 'NY', 'display_address': ['3168 Coney Island Ave', 'Brooklyn, NY 11235']}","{'latitude': 40.578785, 'longitude': -73.960027}",68,mexican,2019-04-26 20:41:55.657240,4.0,0
262,J9pgjC191T-odCmTAG-grQ,El Diablito Taqueria,"{'address1': '60 E 3rd St', 'address2': None, 'address3': '', 'city': 'New York', 'zip_code': '10003', 'country': 'US', 'state': 'NY', 'display_address': ['60 E 3rd St', 'New York, NY 10003']}","{'latitude': 40.72504, 'longitude': -73.98917}",303,mexican,2019-04-26 20:41:19.378397,4.0,1
263,RAE2yM_5uQlKg3ZFLGsjFw,Harry's Daughter,"{'address1': '339 Communipaw Ave', 'address2': '', 'address3': None, 'city': 'Jersey City', 'zip_code': '07304', 'country': 'US', 'state': 'NJ', 'display_address': ['339 Communipaw Ave', 'Jersey City, NJ 07304']}","{'latitude': 40.71083, 'longitude': -74.06228}",152,indian,2019-04-26 20:31:48.732599,4.5,0
264,PTYUAAJbEmvIv4EsyRrcnA,Momoya,"{'address1': '427 Amsterdam Ave', 'address2': '', 'address3': '', 'city': 'New York', 'zip_code': '10024', 'country': 'US', 'state': 'NY', 'display_address': ['427 Amsterdam Ave', 'New York, NY 10024']}","{'latitude': 40.784043, 'longitude': -73.977391}",402,japanese,2019-04-26 20:50:17.886390,4.0,1
265,56PeolgNURAG4x6q7nanmw,Odo,"{'address1': '17 W 20th St', 'address2': '', 'address3': None, 'city': 'New York', 'zip_code': '10011', 'country': 'US', 'state': 'NY', 'display_address': ['17 W 20th St', 'New York, NY 10011']}","{'latitude': 40.74032, 'longitude': -73.99223}",8,japanese,2019-04-26 20:51:18.628826,5.0,0
266,NL7yHrgnOVNtKNRPon5vGQ,Delight 28 Restaurant,"{'address1': '28 Pell St', 'address2': '', 'address3': '', 'city': 'New York', 'zip_code': '10013', 'country': 'US', 'state': 'NY', 'display_address': ['28 Pell St', 'New York, NY 10013']}","{'latitude': 40.715089, 'longitude': -73.998459}",149,chinese,2019-04-26 20:29:15.988297,3.0,0
267,A-ert0jDRBfku9ogyW_mEg,Spice Symphony,"{'address1': '150 E 50th St', 'address2': '', 'address3': None, 'city': 'New York', 'zip_code': '10022', 'country': 'US', 'state': 'NY', 'display_address': ['150 E 50th St', 'New York, NY 10022']}","{'latitude': 40.7558937072754, 'longitude': -73.9715347290039}",356,indian,2019-04-26 20:31:29.853373,4.5,1
268,GVF4kvXupD18afjpLiPLHA,Marco Polo Ristorante,"{'address1': '345 Court St', 'address2': '', 'address3': '', 'city': 'Brooklyn', 'zip_code': '11231', 'country': 'US', 'state': 'NY', 'display_address': ['345 Court St', 'Brooklyn, NY 11231']}","{'latitude': 40.6821975708008, 'longitude': -73.9956817626953}",120,italian,2019-04-26 20:46:08.019846,3.5,0
269,eVk4F9ixl89zyUHJ1G2Aiw,Luzzos La Pizza Napoletana,"{'address1': '211 1st Ave', 'address2': None, 'address3': '', 'city': 'New York', 'zip_code': '10003', 'country': 'US', 'state': 'NY', 'display_address': ['211 1st Ave', 'New York, NY 10003']}","{'latitude': 40.730551, 'longitude': -73.9834846}",1013,italian,2019-04-26 20:44:33.224953,4.0,1
270,Edkx9frqYknN9ykTEqTVXg,Miso Restaurant,"{'address1': '40 Main St', 'address2': '', 'address3': '', 'city': 'Brooklyn', 'zip_code': '11201', 'country': 'US', 'state': 'NY', 'display_address': ['40 Main St', 'Brooklyn, NY 11201']}","{'latitude': 40.7028, 'longitude': -73.99084}",110,japanese,2019-04-26 20:51:27.997967,3.0,0
271,zyG1GIU3KnIZ3bOVGgJXlA,Uncle Luoyang,"{'address1': '928 Amsterdam Ave', 'address2': '', 'address3': '', 'city': 'New York', 'zip_code': '10025', 'country': 'US', 'state': 'NY', 'display_address': ['928 Amsterdam Ave', 'New York, NY 10025']}","{'latitude': 40.80023, 'longitude': -73.96626}",109,chinese,2019-04-26 20:29:04.445497,3.5,0
272,rhEfNtVrckQj-Ns44OBHgA,86 Noodles,"{'address1': '8608 4th Ave', 'address2': '', 'address3': '', 'city': 'Brooklyn', 'zip_code': '11209', 'country': 'US', 'state': 'NY', 'display_address': ['8608 4th Ave', 'Brooklyn, NY 11209']}","{'latitude': 40.6226399, 'longitude': -74.02878}",196,chinese,2019-04-26 20:28:47.071756,3.5,0
273,w7p3TTQaTG3jFFYWHrNnUg,Union Sushi,"{'address1': '3630 Union St', 'address2': '', 'address3': None, 'city': 'Flushing', 'zip_code': '11354', 'country': 'US', 'state': 'NY', 'display_address': ['3630 Union St', 'Flushing, NY 11354']}","{'latitude': 40.762855, 'longitude': -73.828025}",95,japanese,2019-04-26 20:49:51.823451,4.5,0
274,at1MNbwkS1UbUAV2C95kkg,Ino Sushi,"{'address1': '116 Market St', 'address2': 'Ste A', 'address3': '', 'city': 'Clifton', 'zip_code': '07012', 'country': 'US', 'state': 'NJ', 'display_address': ['116 Market St', 'Ste A', 'Clifton, NJ 07012']}","{'latitude': 40.8459631, 'longitude': -74.1629339}",70,japanese,2019-04-26 20:49:50.463744,4.5,0
275,zo4JHfD2nWPUiqgsgDOaHQ,Rao's,"{'address1': '455 E 114th St', 'address2': None, 'address3': '', 'city': 'New York', 'zip_code': '10029', 'country': 'US', 'state': 'NY', 'display_address': ['455 E 114th St', 'New York, NY 10029']}","{'latitude': 40.79392, 'longitude': -73.93427}",137,italian,2019-04-26 20:44:24.332284,4.5,0
276,LktxVJKPev11aC5SeqlLTA,Daxi Sichuan,"{'address1': '136-20 Roosevelt Ave', 'address2': 'Ste 2R', 'address3': None, 'city': 'Flushing', 'zip_code': '11354', 'country': 'US', 'state': 'NY', 'display_address': ['136-20 Roosevelt Ave', 'Ste 2R', 'Flushing, NY 11354']}","{'latitude': 40.75933, 'longitude': -73.8291799}",189,chinese,2019-04-26 20:28:29.483030,4.0,0
277,BAKjtydOJj6KrsGCo-6DEQ,Wing Hing Chinese Restaurant,"{'address1': '312 Rogers Ave', 'address2': '', 'address3': '', 'city': 'Brooklyn', 'zip_code': '11225', 'country': 'US', 'state': 'NY', 'display_address': ['312 Rogers Ave', 'Brooklyn, NY 11225']}","{'latitude': 40.665832, 'longitude': -73.953918}",13,chinese,2019-04-26 20:29:47.530793,4.0,0
278,W5RSIwNKBa7k0jeAs5KDYg,Mei Jin Ramen,"{'address1': '1574 2nd Ave', 'address2': '', 'address3': '', 'city': 'New York', 'zip_code': '10028', 'country': 'US', 'state': 'NY', 'display_address': ['1574 2nd Ave', 'New York, NY 10028']}","{'latitude': 40.775028, 'longitude': -73.953491}",589,japanese,2019-04-26 20:50:05.216240,4.0,1
279,AbNXFnI4OlWZvsQLGKf64w,Dino,"{'address1': '222 Dekalb Ave', 'address2': '', 'address3': '', 'city': 'Brooklyn', 'zip_code': '11205', 'country': 'US', 'state': 'NY', 'display_address': ['222 Dekalb Ave', 'Brooklyn, NY 11205']}","{'latitude': 40.68941, 'longitude': -73.97047}",256,italian,2019-04-26 20:46:02.227161,3.5,1
280,o98YOTMBCC2p_9nQyrdZKA,Mail Garden,"{'address1': '149-32 41st Ave', 'address2': '', 'address3': '', 'city': 'New York', 'zip_code': '11355', 'country': 'US', 'state': 'NY', 'display_address': ['149-32 41st Ave', 'New York, NY 11355']}","{'latitude': 40.762161, 'longitude': -73.8144949}",22,korean,2019-04-26 20:33:45.679523,3.5,0
281,iBPQRnM_TMQX6tYdjCbCXA,Vai Restaurant,"{'address1': '429 Amsterdam Ave', 'address2': '', 'address3': '', 'city': 'New York', 'zip_code': '10024', 'country': 'US', 'state': 'NY', 'display_address': ['429 Amsterdam Ave', 'New York, NY 10024']}","{'latitude': 40.78416, 'longitude': -73.97736}",360,italian,2019-04-26 20:45:08.016554,4.0,1
282,nIYDlplPts4l2G-bMlQbNg,Rustica Lounge Bar & Restaurant,"{'address1': '565 Gorge Rd', 'address2': None, 'address3': '', 'city': 'Cliffside Park', 'zip_code': '07010', 'country': 'US', 'state': 'NJ', 'display_address': ['565 Gorge Rd', 'Cliffside Park, NJ 07010']}","{'latitude': 40.82295, 'longitude': -73.98804}",142,italian,2019-04-26 20:46:02.314927,3.5,0
283,56wxE888GknVcUeAXBfqFw,Shanghai Lee,"{'address1': '157 Franklin St', 'address2': '', 'address3': '', 'city': 'Brooklyn', 'zip_code': '11222', 'country': 'US', 'state': 'NY', 'display_address': ['157 Franklin St', 'Brooklyn, NY 11222']}","{'latitude': 40.7318, 'longitude': -73.9582099}",120,chinese,2019-04-26 20:29:47.177409,3.0,0
284,gPn_MadQRUNClx67z-tQ5g,Kuro-Obi at UrbanSpace 570 Lex,"{'address1': '570 Lexington Ave', 'address2': '', 'address3': 'General Electric Building', 'city': 'New York', 'zip_code': '10022', 'country': 'US', 'state': 'NY', 'display_address': ['570 Lexington Ave', 'General Electric Building', 'New York, NY 10022']}","{'latitude': 40.75686, 'longitude': -73.97228}",15,japanese,2019-04-26 20:51:32.345339,3.5,0
285,lRaDAnKXieqbGnhqjDVhzg,Kissaten Jin,"{'address1': '3187 Broadway', 'address2': '', 'address3': '', 'city': 'New York', 'zip_code': '10027', 'country': 'US', 'state': 'NY', 'display_address': ['3187 Broadway', 'New York, NY 10027']}","{'latitude': 40.8154947443707, 'longitude': -73.9587885935599}",112,japanese,2019-04-26 20:51:01.457799,3.5,0
286,eIbKiQuExi12NcGeqMzQAw,Baba's Pierogies,"{'address1': '295 3rd Ave', 'address2': '', 'address3': '', 'city': 'Brooklyn', 'zip_code': '11215', 'country': 'US', 'state': 'NY', 'display_address': ['295 3rd Ave', 'Brooklyn, NY 11215']}","{'latitude': 40.67687, 'longitude': -73.98633}",351,indian,2019-04-26 20:30:22.559226,4.5,1
287,FZpm4_fbd6P984foOUejWg,Jongro BBQ,"{'address1': '22 W 32nd St', 'address2': 'Fl 2', 'address3': '', 'city': 'New York', 'zip_code': '10001', 'country': 'US', 'state': 'NY', 'display_address': ['22 W 32nd St', 'Fl 2', 'New York, NY 10001']}","{'latitude': 40.747514, 'longitude': -73.986884}",1572,korean,2019-04-26 20:33:08.456451,4.0,1
288,Ih53ReAUQTuBcjWhzQRatQ,Pancho's Burritos,"{'address1': '204 Franklin Ave', 'address2': '', 'address3': '', 'city': 'Nutley', 'zip_code': '07110', 'country': 'US', 'state': 'NJ', 'display_address': ['204 Franklin Ave', 'Nutley, NJ 07110']}","{'latitude': 40.8149472875938, 'longitude': -74.1625518724322}",138,mexican,2019-04-26 20:42:48.823409,3.0,0
289,OWALknbRruLyO8KFPATf_Q,New Jin Shing,"{'address1': '1794 Broadway', 'address2': '', 'address3': '', 'city': 'Brooklyn', 'zip_code': '11207', 'country': 'US', 'state': 'NY', 'display_address': ['1794 Broadway', 'Brooklyn, NY 11207']}","{'latitude': 40.682073, 'longitude': -73.909389}",29,chinese,2019-04-26 20:29:04.774512,4.0,0
